     3.03           OBSERVATION DATA    M (MIXED)           RINEX VERSION / TYPE
HEADER CHANGED BY EPN CB ON 2020-07-02                      COMMENT
TO BE CONFORM WITH THE INFORMATION IN                       COMMENT
ftp://epncb.oma.be/pub/station/log/wtzr.log                 COMMENT
                                                            COMMENT
gfzrnx-1.06-6962    FILE CONVERSION     20200625 010203 UTC COMMENT
gfzrnx-1.06-6962    FILE MERGE          20200626 012019 UTC PGM / RUN BY / DATE
  4075580.8863   931853.5784  4801567.9707                  APPROX POSITION XYZ
GR50 V4.31          BKG-GOWettzell      20200624 235942 UTC COMMENT
SNR is mapped to RINEX snr flag value [1-9]                 COMMENT
LX:     < 12dBHz -> 1; 12-17dBHz -> 2; 18-23dBHz -> 3       COMMENT
       24-29dBHz -> 4; 30-35dBHz -> 5; 36-41dBHz -> 6       COMMENT
       42-47dBHz -> 7; 48-53dBHz -> 8; >= 54dBHz -> 9       COMMENT
GR50 V4.31          BKG-GOWettzell      20200625 005942 UTC COMMENT
GR50 V4.31          BKG-GOWettzell      20200625 015942 UTC COMMENT
GR50 V4.31          BKG-GOWettzell      20200625 025942 UTC COMMENT
GR50 V4.31          BKG-GOWettzell      20200625 035942 UTC COMMENT
GR50 V4.31          BKG-GOWettzell      20200625 045942 UTC COMMENT
GR50 V4.31          BKG-GOWettzell      20200625 055942 UTC COMMENT
GR50 V4.31          BKG-GOWettzell      20200625 065942 UTC COMMENT
GR50 V4.31          BKG-GOWettzell      20200625 075942 UTC COMMENT
GR50 V4.31          BKG-GOWettzell      20200625 085942 UTC COMMENT
GR50 V4.31          BKG-GOWettzell      20200625 095942 UTC COMMENT
GR50 V4.31          BKG-GOWettzell      20200625 105942 UTC COMMENT
GR50 V4.31          BKG-GOWettzell      20200625 115942 UTC COMMENT
GR50 V4.31          BKG-GOWettzell      20200625 125942 UTC COMMENT
GR50 V4.31          BKG-GOWettzell      20200625 135942 UTC COMMENT
GR50 V4.31          BKG-GOWettzell      20200625 145942 UTC COMMENT
GR50 V4.31          BKG-GOWettzell      20200625 155942 UTC COMMENT
GR50 V4.31          BKG-GOWettzell      20200625 165942 UTC COMMENT
GR50 V4.31          BKG-GOWettzell      20200625 175942 UTC COMMENT
GR50 V4.31          BKG-GOWettzell      20200625 185942 UTC COMMENT
GR50 V4.31          BKG-GOWettzell      20200625 195942 UTC COMMENT
GR50 V4.31          BKG-GOWettzell      20200625 205942 UTC COMMENT
GR50 V4.31          BKG-GOWettzell      20200625 215942 UTC COMMENT
GR50 V4.31          BKG-GOWettzell      20200625 225942 UTC COMMENT
DBHZ                                                        SIGNAL STRENGTH UNIT
    18    18  1929     7                                    LEAP SECONDS
G L2S -0.25000                                              SYS / PHASE SHIFT
R L2P  0.25000                                              SYS / PHASE SHIFT
E L8Q -0.25000                                              SYS / PHASE SHIFT
1831551             LEICA GR50          4.31/7.403          REC # / TYPE / VERS
WTZR                                                        MARKER NAME
        0.0710        0.0000        0.0000                  ANTENNA: DELTA H/E/N
14201M010                                                   MARKER NUMBER
Automatic           BKG-GOWettzell                          OBSERVER / AGENCY
 24 R01  1 R02 -4 R03  5 R04  6 R05  1 R06 -4 R07  5 R08  6 GLONASS SLOT / FRQ #
    R09 -2 R10 -7 R11  0 R12 -1 R13 -2 R14 -7 R15  0 R16 -1 GLONASS SLOT / FRQ #
    R17  4 R18 -3 R19  3 R20  2 R21  4 R22 -3 R23  3 R24  2 GLONASS SLOT / FRQ #
 C1C  -71.940 C1P  -71.940 C2C  -71.940 C2P  -71.940        GLONASS COD/PHS/BIS
10020031            LEIAR25.R3      LEIT                    ANT # / TYPE
     0                                                      RCV CLOCK OFFS APPL
C   12 C2I C6I C7I D2I D6I D7I L2I L6I L7I S2I S6I S7I      SYS / # / OBS TYPES
E   16 C1C C5Q C7Q C8Q D1C D5Q D7Q D8Q L1C L5Q L7Q L8Q S1C  SYS / # / OBS TYPES
       S5Q S7Q S8Q                                          SYS / # / OBS TYPES
G   16 C1C C2S C2W C5Q D1C D2S D2W D5Q L1C L2S L2W L5Q S1C  SYS / # / OBS TYPES
       S2S S2W S5Q                                          SYS / # / OBS TYPES
I    4 C5A D5A L5A S5A                                      SYS / # / OBS TYPES
R   16 C1C C2C C2P C3Q D1C D2C D2P D3Q L1C L2C L2P L3Q S1C  SYS / # / OBS TYPES
       S2C S2P S3Q                                          SYS / # / OBS TYPES
S    4 C1C D1C L1C S1C                                      SYS / # / OBS TYPES
   111                                                      # OF SATELLITES
   C02  1628  1266  2215  1628  1266  2215  1155  1261  2199PRN / # OF OBS
        1628  1266  2215                                    PRN / # OF OBS
   C05  2880  2880  2880  2880  2880  2880  2880  2880  2880PRN / # OF OBS
        2880  2880  2880                                    PRN / # OF OBS
   C06   849   849   849   849   849   849   848   849   848PRN / # OF OBS
         849   849   849                                    PRN / # OF OBS
   C07   839   839   839   839   839   839   839   839   838PRN / # OF OBS
         839   839   839                                    PRN / # OF OBS
   C08   867   867   869   867   867   869   867   867   868PRN / # OF OBS
         867   867   869                                    PRN / # OF OBS
   C09  1308  1309  1310  1308  1309  1310  1308  1309  1310PRN / # OF OBS
        1308  1309  1310                                    PRN / # OF OBS
   C10  1308  1306  1308  1308  1306  1308  1306  1306  1308PRN / # OF OBS
        1308  1306  1308                                    PRN / # OF OBS
   C11  1031  1034  1037  1031  1034  1037  1029  1032  1035PRN / # OF OBS
        1031  1034  1037                                    PRN / # OF OBS
   C12   923   930   935   923   930   935   917   930   932PRN / # OF OBS
         923   930   935                                    PRN / # OF OBS
   C13  1290  1288  1287  1290  1288  1287  1287  1288  1286PRN / # OF OBS
        1290  1288  1287                                    PRN / # OF OBS
   C14   877   877   878   877   877   878   876   877   877PRN / # OF OBS
         877   877   878                                    PRN / # OF OBS
   C16   921         922   921         922   921         920PRN / # OF OBS
         921         922                                    PRN / # OF OBS
   C19  1096  1092        1096  1092        1095  1091      PRN / # OF OBS
        1096  1092                                          PRN / # OF OBS
   C20   914   898         914   898         914   898      PRN / # OF OBS
         914   898                                          PRN / # OF OBS
   C21  1242              1242              1239            PRN / # OF OBS
        1242                                                PRN / # OF OBS
   C22  1241              1241              1238            PRN / # OF OBS
        1241                                                PRN / # OF OBS
   C23   854               854               853            PRN / # OF OBS
         854                                                PRN / # OF OBS
   C24  1252              1252              1252            PRN / # OF OBS
        1252                                                PRN / # OF OBS
   C25   983               983               983            PRN / # OF OBS
         983                                                PRN / # OF OBS
   C26  1265              1265              1264            PRN / # OF OBS
        1265                                                PRN / # OF OBS
   C27  1097              1097              1097            PRN / # OF OBS
        1097                                                PRN / # OF OBS
   C28  1081              1081              1081            PRN / # OF OBS
        1081                                                PRN / # OF OBS
   C29  1002              1002               998            PRN / # OF OBS
        1002                                                PRN / # OF OBS
   C30  1064              1064              1064            PRN / # OF OBS
        1064                                                PRN / # OF OBS
   E01   704   714   712   716   704   714   712   716   704PRN / # OF OBS
         714   712   716   704   714   712   716            PRN / # OF OBS
   E02  1340  1342  1342  1346  1340  1342  1342  1346  1340PRN / # OF OBS
        1342  1342  1346  1340  1342  1342  1346            PRN / # OF OBS
   E03  1379  1382  1380  1387  1379  1382  1380  1387  1379PRN / # OF OBS
        1382  1380  1387  1379  1382  1380  1387            PRN / # OF OBS
   E04   335   338   339   381   335   338   339   381   335PRN / # OF OBS
         338   339   381   335   338   339   381            PRN / # OF OBS
   E05  1029  1039  1041  1044  1029  1039  1041  1044  1029PRN / # OF OBS
        1039  1041  1044  1029  1039  1041  1044            PRN / # OF OBS
   E07  1462  1461  1461  1471  1462  1461  1461  1471  1462PRN / # OF OBS
        1461  1461  1471  1462  1461  1461  1471            PRN / # OF OBS
   E08  1449  1448  1448  1451  1449  1448  1448  1451  1449PRN / # OF OBS
        1448  1448  1451  1449  1448  1448  1451            PRN / # OF OBS
   E09   574   583   582   585   574   583   582   585   574PRN / # OF OBS
         583   582   585   574   583   582   585            PRN / # OF OBS
   E11   989   989   988   991   989   989   988   991   989PRN / # OF OBS
         989   988   991   989   989   988   991            PRN / # OF OBS
   E12  1071  1074  1074  1076  1071  1074  1074  1076  1071PRN / # OF OBS
        1074  1074  1076  1071  1074  1074  1076            PRN / # OF OBS
   E13  1154  1166  1164  1175  1154  1166  1164  1175  1154PRN / # OF OBS
        1166  1164  1175  1154  1166  1164  1175            PRN / # OF OBS
   E14   635   636   636   636   635   636   636   636   635PRN / # OF OBS
         636   636   636   635   636   636   636            PRN / # OF OBS
   E15  1143  1149  1146  1151  1143  1149  1146  1151  1143PRN / # OF OBS
        1149  1146  1151  1143  1149  1146  1151            PRN / # OF OBS
   E18   588   600   598   604   588   600   598   604   588PRN / # OF OBS
         600   598   604   588   600   598   604            PRN / # OF OBS
   E19   623   623   623   623   623   623   623   623   623PRN / # OF OBS
         623   623   623   623   623   623   623            PRN / # OF OBS
   E20   704                     704                     704PRN / # OF OBS
                           704                              PRN / # OF OBS
   E21   960   959   961   965   960   959   961   965   960PRN / # OF OBS
         959   961   965   960   959   961   965            PRN / # OF OBS
   E24   731   737   737   746   731   737   737   746   731PRN / # OF OBS
         737   737   746   731   737   737   746            PRN / # OF OBS
   E25  1148  1167  1168  1174  1148  1167  1168  1174  1148PRN / # OF OBS
        1167  1168  1174  1148  1167  1168  1174            PRN / # OF OBS
   E26  1060  1064  1074  1075  1060  1064  1074  1075  1060PRN / # OF OBS
        1064  1074  1075  1060  1064  1074  1075            PRN / # OF OBS
   E27  1292  1296  1297  1303  1292  1296  1297  1303  1292PRN / # OF OBS
        1296  1297  1303  1292  1296  1297  1303            PRN / # OF OBS
   E30  1476  1478  1478  1482  1476  1478  1478  1482  1476PRN / # OF OBS
        1478  1478  1482  1476  1478  1478  1482            PRN / # OF OBS
   E31   601   635   609   642   601   635   609   642   601PRN / # OF OBS
         635   609   642   601   635   609   642            PRN / # OF OBS
   E33  1043  1044  1043  1061  1043  1044  1043  1061  1043PRN / # OF OBS
        1044  1043  1061  1043  1044  1043  1061            PRN / # OF OBS
   E36   903   903   902   905   903   903   902   905   903PRN / # OF OBS
         903   902   905   903   903   902   905            PRN / # OF OBS
   G01   921   920   917   935   921   920   917   935   915PRN / # OF OBS
         920   914   935   921   920   917   935            PRN / # OF OBS
   G02  1108        1103        1108        1103        1107PRN / # OF OBS
              1103        1108        1103                  PRN / # OF OBS
   G03   819   818   818   819   819   818   818   819   818PRN / # OF OBS
         818   818   819   819   818   818   819            PRN / # OF OBS
   G04   942   938   928   941   942   938   928   941   938PRN / # OF OBS
         938   928   941   942   938   928   941            PRN / # OF OBS
   G05  1091  1085  1086        1091  1085  1086        1088PRN / # OF OBS
        1085  1085        1091  1085  1086                  PRN / # OF OBS
   G06  1078  1076  1077  1079  1078  1076  1077  1079  1076PRN / # OF OBS
        1076  1076  1079  1078  1076  1077  1079            PRN / # OF OBS
   G07  1047  1045  1043        1047  1045  1043        1045PRN / # OF OBS
        1045  1043        1047  1045  1043                  PRN / # OF OBS
   G08  1050  1047  1048  1047  1050  1047  1048  1047  1044PRN / # OF OBS
        1047  1043  1047  1050  1047  1048  1047            PRN / # OF OBS
   G09   821   821   820   821   821   821   820   821   820PRN / # OF OBS
         821   820   821   821   821   820   821            PRN / # OF OBS
   G10  1073  1073  1071  1074  1073  1073  1071  1074  1071PRN / # OF OBS
        1073  1070  1074  1073  1073  1071  1074            PRN / # OF OBS
   G11   843         835         843         835         840PRN / # OF OBS
               835         843         835                  PRN / # OF OBS
   G12   814   814   814         814   814   814         814PRN / # OF OBS
         814   814         814   814   814                  PRN / # OF OBS
   G13   935         925         935         925         931PRN / # OF OBS
               925         935         925                  PRN / # OF OBS
   G14  1085        1083        1085        1083        1084PRN / # OF OBS
              1083        1085        1083                  PRN / # OF OBS
   G15  1048  1047  1045        1048  1047  1045        1046PRN / # OF OBS
        1047  1044        1048  1047  1045                  PRN / # OF OBS
   G16  1080        1078        1080        1078        1079PRN / # OF OBS
              1077        1080        1078                  PRN / # OF OBS
   G17  1100  1098  1100        1100  1098  1100        1097PRN / # OF OBS
        1098  1097        1100  1098  1100                  PRN / # OF OBS
   G18  1048  1047  1043  1048  1048  1047  1043  1048  1046PRN / # OF OBS
        1047  1043  1048  1048  1047  1043  1048            PRN / # OF OBS
   G19  1069        1062        1069        1062        1066PRN / # OF OBS
              1062        1069        1062                  PRN / # OF OBS
   G20  1069        1060        1069        1060        1067PRN / # OF OBS
              1060        1069        1060                  PRN / # OF OBS
   G21   892         873         892         873         883PRN / # OF OBS
               871         892         873                  PRN / # OF OBS
   G22   829         828         829         828         828PRN / # OF OBS
               828         829         828                  PRN / # OF OBS
   G24   866   858   862   863   866   858   862   863   858PRN / # OF OBS
         858   857   863   866   858   862   863            PRN / # OF OBS
   G25   822   822   821   822   822   822   821   822   819PRN / # OF OBS
         822   819   822   822   822   821   822            PRN / # OF OBS
   G26  1033  1033  1033  1036  1033  1033  1033  1036  1031PRN / # OF OBS
        1033  1031  1036  1033  1033  1033  1036            PRN / # OF OBS
   G27   952   951   951   957   952   951   951   957   949PRN / # OF OBS
         951   949   957   952   951   951   957            PRN / # OF OBS
   G28  1105        1093        1105        1093        1100PRN / # OF OBS
              1092        1105        1093                  PRN / # OF OBS
   G29   949   937   930         949   937   930         940PRN / # OF OBS
         937   928         949   937   930                  PRN / # OF OBS
   G30   917   913   888   925   917   913   888   925   907PRN / # OF OBS
         913   885   925   917   913   888   925            PRN / # OF OBS
   G31  1088  1084  1082        1088  1084  1082        1083PRN / # OF OBS
        1084  1079        1088  1084  1082                  PRN / # OF OBS
   G32  1080  1078  1077  1081  1080  1078  1077  1081  1078PRN / # OF OBS
        1078  1076  1081  1080  1078  1077  1081            PRN / # OF OBS
   I02  2108  2108  2091  2108                              PRN / # OF OBS
   I03  2880  2880  2880  2880                              PRN / # OF OBS
   I04   589   589   584   589                              PRN / # OF OBS
   I05   574   574   571   574                              PRN / # OF OBS
   I06  2880  2880  2880  2880                              PRN / # OF OBS
   R01  1196  1184  1191        1196  1184  1191        1194PRN / # OF OBS
        1176  1184        1196  1184  1191                  PRN / # OF OBS
   R02  1244  1240  1243        1244  1240  1243        1243PRN / # OF OBS
        1237  1239        1244  1240  1243                  PRN / # OF OBS
   R03  1077  1073  1074        1077  1073  1074        1075PRN / # OF OBS
        1073  1073        1077  1073  1074                  PRN / # OF OBS
   R04   994   994   994         994   994   994         994PRN / # OF OBS
         993   993         994   994   994                  PRN / # OF OBS
   R05   980   979   979   976   980   979   979   976   979PRN / # OF OBS
         978   978   976   980   979   979   976            PRN / # OF OBS
   R06   964                     964                     963PRN / # OF OBS
                           964                              PRN / # OF OBS
   R07   960   953   955         960   953   955         960PRN / # OF OBS
         949   953         960   953   955                  PRN / # OF OBS
   R08  1147  1143  1143        1147  1143  1143        1146PRN / # OF OBS
        1141  1142        1147  1143  1143                  PRN / # OF OBS
   R09  1024  1021  1022        1024  1021  1022        1024PRN / # OF OBS
        1021  1021        1024  1021  1022                  PRN / # OF OBS
   R10  1191                    1191                    1191PRN / # OF OBS
                          1191                              PRN / # OF OBS
   R11  1228  1224  1226        1228  1224  1226        1226PRN / # OF OBS
        1221  1223        1228  1224  1226                  PRN / # OF OBS
   R12  1244  1243  1241        1244  1243  1241        1244PRN / # OF OBS
        1240  1240        1244  1243  1241                  PRN / # OF OBS
   R13   969   968   969         969   968   969         969PRN / # OF OBS
         966   968         969   968   969                  PRN / # OF OBS
   R14   978   969   972         978   969   972         977PRN / # OF OBS
         966   967         978   969   972                  PRN / # OF OBS
   R15   979   976   977         979   976   977         979PRN / # OF OBS
         975   976         979   976   977                  PRN / # OF OBS
   R16   969   964   967         969   964   967         969PRN / # OF OBS
         963   964         969   964   967                  PRN / # OF OBS
   R17  1104  1103  1103        1104  1103  1103        1104PRN / # OF OBS
        1103  1103        1104  1103  1103                  PRN / # OF OBS
   R18  1142  1137  1137        1142  1137  1137        1139PRN / # OF OBS
        1135  1137        1142  1137  1137                  PRN / # OF OBS
   R19  1096  1096  1096        1096  1096  1096        1096PRN / # OF OBS
        1096  1096        1096  1096  1096                  PRN / # OF OBS
   R20   966   966   966         966   966   966         960PRN / # OF OBS
         963   963         966   966   966                  PRN / # OF OBS
   R21  1076  1074  1075  1073  1076  1074  1075  1073  1075PRN / # OF OBS
        1073  1073  1073  1076  1074  1075  1073            PRN / # OF OBS
   R23  1063  1055  1056        1063  1055  1056        1062PRN / # OF OBS
        1050  1053        1063  1055  1056                  PRN / # OF OBS
   R24  1055  1052  1052        1055  1052  1052        1055PRN / # OF OBS
        1052  1052        1055  1052  1052                  PRN / # OF OBS
   S23  2880  2880  2880  2880                              PRN / # OF OBS
   S26   274   274   274   274                              PRN / # OF OBS
   S36  2879  2879  2879  2879                              PRN / # OF OBS
    30.000                                                  INTERVAL
  2020     6    25     0     0    0.0000000     GPS         TIME OF FIRST OBS
  2020     6    25     0    59   30.0000000     GPS         TIME OF LAST OBS
                                                            END OF HEADER
> 2020 06 25 00 00 00.0000000  0 41
C05  39932383.278    39932377.012    39932377.974          -2.382          -1.988          -1.707   207938401.30606 168966968.17406 160791140.12706        41.850          40.700          37.700
C07  39629720.785    39629709.498    39629715.055        -567.253        -460.929        -438.660   206362385.06407 167686307.04006 159572480.73207        44.600          41.500          42.450
C10  38205413.635    38205404.916    38205411.018          96.292          78.218          74.482   198945650.80007 161659612.69207 153837410.30607        45.400          44.000          46.600
C12                  26820712.043    26820717.486                         323.184         307.636                   113487213.60305 107995915.97405                        31.700          31.900
C19  24215322.206    24215312.944                        2752.535        2236.719                   126095564.30108 102462951.58707                        48.900          45.050
C20  21969623.187    21969610.527                         177.121         144.062                   114401635.29508  92960665.41807                        52.900          46.800
C23  23430398.446                                       -2162.766                                   122008276.02008                                        52.550
E01  27843596.824    27843598.035    27843597.646    27843598.027       -2746.741       -2051.248       -2104.669       -2077.921   146319122.74548 109264306.25906 112114673.51607 110689492.06107        48.300          41.100          42.800          45.750
E03  27455495.055    27455497.598    27455496.095    27455496.892        2638.293        1970.221        2021.685        1995.926   144279617.32547 107741286.71907 110551920.75607 109146604.41207        46.850          43.050          43.650          47.100
E04  28437469.608    28437471.446    28437470.145    28437470.358       -2708.361       -2022.464       -2075.135       -2048.915   149439964.72847 111594808.00306 114505974.46306 113050393.41307        45.100          40.750          41.000          44.600
E05  23758905.337    23758907.446    23758906.494    23758906.971        1074.355         802.343         823.239         812.797   124853934.22448  93235109.94808  95667327.03809  94451220.16709        53.900          53.700          54.250          57.700
E09  22250601.597    22250603.366    22250602.452    22250602.801       -1468.823       -1096.840       -1125.486       -1111.166   116927751.51649  87316216.27608  89594022.03208  88455118.32809        54.000          52.700          52.900          56.450
E15  27388757.806    27388761.367    27388760.529    27388760.870        -981.072        -732.536        -751.630        -742.116   143928904.46947 107479396.50507 110283199.72307 108881299.29207        46.150          43.250          43.350          46.950
E24  22945178.699    22945191.596    22945190.656    22945190.940        2253.958        1683.153        1727.139        1705.161   120577733.70049  90041870.67008  92390781.97308  91216328.49309        54.000          52.000          52.100          55.700
E31  24315543.185    24315545.504    24315544.693    24315544.941        -559.245        -417.614        -428.495        -423.053   127779066.05648  95419457.92408  97908652.49908  96664054.88409        53.350          52.000          52.650          56.000
G05  20746298.836    20746297.947    20746297.286                        -485.195        -378.074        -378.074                   109022563.58108  84952654.48008  84952671.47608                        51.400          51.350          51.600
G07  21646682.004    21646680.486    21646680.137                       -1923.081       -1498.505       -1498.506                   113754129.23908  88639598.29608  88639597.28808                        51.550          49.700          51.650
G08  24919936.138    24919938.485    24919937.600    24919935.924        1534.729        1195.893        1195.894        1145.932   130955156.76507 102042987.23307 102042978.22607  97791188.67307        44.150          42.800          43.950          44.000
G09  23949741.662    23949742.881    23949742.692    23949742.817       -3188.327       -2484.411       -2484.411       -2380.833   125856794.68007  98070244.27507  98070242.27307  93983997.02108        46.300          45.250          46.100          48.350
G13  21874630.137                    21874627.993                        2541.608                        1980.475                   114951984.56808                  89572975.81607                        52.550                          44.700
G15  24398135.073    24398134.096    24398133.525                        3488.382        2718.220        2718.221                   128213071.40307  99906283.26106  99906289.27007                        44.400          41.500          42.700
G18  24735868.666    24735868.109    24735867.652    24735871.118        1295.303        1009.326        1009.327         967.386   129987870.46207 101289245.32507 101289248.33406  97068872.40207        44.750          42.200          38.700          43.550
G27  25060678.271    25060678.444    25060677.980    25060678.356         102.797          80.104          80.104          76.778   131694751.51807 102619291.56706 102619290.56507  98343486.37707        44.350          40.400          44.650          44.700
G28  22601016.337                    22601013.967                        3002.707                        2339.773                   118769148.27508                  92547388.79906                        48.350                          41.600
G30  20373961.173    20373962.809    20373962.065    20373961.706        -136.758        -106.565        -106.565        -102.119   107065925.60608  83428005.06408  83428008.06408  79951844.58809        52.200          53.250          52.300          56.400
I02  37467525.896         341.100   147030673.23407        42.950
I03  41391075.302         -45.608   162427484.86906        39.600
I04  41158553.402        -328.383   161515025.57706        37.700
I06  38262871.254          27.019   150151726.90906        41.100
R01  19144830.659    19144832.577    19144833.443                         217.938         169.509         169.509                   102340135.05908  79597904.33107  79597904.33407                        50.400          45.400          44.500
R02  22446700.657    22446702.074    22446702.003                        3831.586        2980.123        2980.123                   119779901.50908  93162165.12407  93162161.11507                        51.300          43.400          43.350
R08  20704959.792    20704959.464    20704959.467                       -2816.843       -2190.878       -2190.878                   110874158.04808  86235472.45408  86235469.45408                        50.100          48.650          48.050
R09  23329902.163    23329902.977    23329902.896                       -4139.448       -3219.574       -3219.574                   124580429.33607  96895897.82207  96895909.80906                        46.250          42.300          41.400
R10  20312102.170                                                       -2609.315                                                   108274967.53208                                                        50.450
R11  19669600.714    19669602.068    19669602.097                        2000.867        1556.229        1556.229                   105108389.24908  81750977.09608  81750982.09308                        53.650          50.400          49.850
R12  23061722.957    23061725.211    23061725.340                        4312.547        3354.206        3354.206                   123191601.55508  95815684.24407  95815685.23407                        49.150          44.200          43.200
R17  23899124.553    23899125.190    23899125.471                       -2860.224       -2224.620       -2224.621                   127889043.38807  99469253.56906  99469256.56906                        44.650          38.850          38.300
R18  23431131.596    23431133.767    23431133.567                        -143.616        -111.700        -111.700                   125076981.29007  97282110.09906  97282110.08706                        46.800          40.250          39.900
R19  24479864.003    24479864.610    24479863.995                        2673.926        2079.722        2079.722                   130950763.83606 101850595.64206 101850594.64806                        37.000          36.650          36.600
S23  38542860.388           3.137   202544511.07808        49.150
S36  38338991.064          -1.361   201474094.75908        48.600
> 2020 06 25 00 00 30.0000000  0 42
C05  39932395.730    39932389.478    39932390.431          -1.901          -1.731          -1.353   207938466.22906 168967020.93606 160791190.31906        41.900          41.650          38.550
C07  39632998.653    39632987.203    39632992.765        -570.605        -463.729        -441.170   206379453.46807 167700176.53207 159585679.11707        44.400          42.100          42.800
C10  38204870.825    38204862.160    38204868.273          91.936          74.732          71.173   198942824.46307 161657316.06807 153835224.81807        45.550          44.750          47.100
C12                  26818465.757    26818471.242                         309.878         295.530                   113477709.47404 107986871.65405                        28.300          31.050
C19  24199482.219    24199472.949                        2746.200        2231.518                   126013082.07908 102395928.02707                        49.350          45.850
C20  21968643.624    21968630.798                         162.683         132.186                   114396534.02508  92956520.22707                        52.700          47.650
C23  23442885.902                                       -2172.385                                   122073301.55308                                        52.800
E01  27859293.172    27859294.155    27859294.121    27859294.056       -2752.275       -2055.075       -2108.842       -2082.080   146401607.15747 109325901.74706 112177875.82907 110751890.96807        47.050          41.000          43.150          44.950
E03  27440434.320    27440436.414    27440435.309    27440436.298        2637.786        1969.740        2021.212        1995.535   144200472.34947 107682184.97307 110491277.23207 109086731.77107        47.350          42.950          44.850          46.950
E04  28452936.352    28452938.107    28452936.559    28452937.025       -2710.403       -2023.791       -2076.821       -2050.381   149521242.60247 111655502.51506 114568252.34006 113111879.60407        45.750          40.350          40.500          43.400
E05  23752792.936    23752794.925    23752794.090    23752794.533        1066.928         796.700         817.514         807.136   124821813.15748  93211123.43708  95642714.78809  94426920.78409        53.950          53.250          54.900          57.000
E09  22259009.478    22259011.267    22259010.116    22259010.693       -1476.825       -1102.781       -1131.576       -1117.172   116971935.09749  87349210.50108  89627876.97908  88488542.91309        54.350          52.450          53.450          55.900
E15  27394396.298    27394399.656    27394398.681    27394399.510        -994.493        -742.785        -761.989        -752.345   143958535.01647 107501523.24607 110305903.66907 108903714.62607        46.300          42.400          44.000          46.250
E24  22932340.103    22932353.013    22932351.956    22932352.302        2243.730        1675.535        1719.239        1697.371   120510266.63548  89991489.43408  92339086.44308  91165290.11209        53.400          51.050          52.750          54.900
E31  24318774.933    24318777.172    24318776.351    24318776.641        -572.952        -427.900        -439.082        -433.476   127796048.76948  95432139.82208  97921665.23008  96676902.19809        53.200          51.650          53.200          55.400
G05  20749124.891    20749124.047    20749123.408                        -504.978        -393.490        -393.490                   109037414.87808  84964226.91908  84964243.91508                        50.550          50.600          50.700
G07  21657686.855    21657685.375    21657685.023                       -1932.498       -1505.842       -1505.842                   113811960.19508  88684661.37708  88684660.37008                        50.850          48.650          50.900
G08  24911216.967    24911219.687    24911218.951    24911217.204        1519.842        1184.294        1184.295        1134.897   130909337.97807 102007284.34507 102007275.34507  97756973.40007        43.950          42.750          43.850          45.550
G09  23967955.052    23967956.337    23967956.036    23967956.264       -3192.591       -2487.734       -2487.733       -2384.041   125952506.52407  98144824.90307  98144822.90507  94055470.11808        47.200          43.900          47.250          48.000
G13  21860140.760                    21860138.455                        2534.396                        1974.855                   114875841.68608                  89513643.70307                        52.600                          43.600
G15  24378225.282    24378224.521    24378224.005                        3486.275        2716.581        2716.581                   128108445.92107  99824756.96706  99824762.98306                        45.000          41.500          41.850
G18  24728522.426    24728521.903    24728521.634    24728524.971        1277.970         995.821         995.821         954.291   129949266.38007 101259164.24506 101259167.24306  97040044.69307        44.500          41.250          37.100          43.850
G27  25060146.007    25060146.054    25060145.533    25060145.852          83.878          65.359          65.360          62.444   131691954.00307 102617111.67506 102617110.67007  98341397.33907        43.900          39.200          43.200          44.600
G28  22583901.404                    22583899.376                        2993.080                        2332.271                   118679209.89208                  92477306.95906                        48.900                          41.350
G30  20374784.361    20374785.979    20374785.185    20374784.861        -151.748        -118.245        -118.245        -113.287   107070251.62408  83431375.99308  83431378.99008  79955075.05709        52.350          52.250          52.450          56.000
I02  37464923.690         339.651   147020461.80907        42.350
I03  41391423.855         -45.455   162428852.92306        39.750
I04  41161066.870        -329.426   161524887.98506        37.550
I06  38262664.596          26.970   150150916.08306        40.800
R01  19143665.993    19143667.645    19143668.457                         197.192         153.372         153.372                   102333907.66508  79593060.80107  79593060.80307                        50.900          45.000          44.300
R02  22425168.793    22425170.146    22425170.201                        3828.026        2977.355        2977.356                   119665003.68508  93072800.17607  93072796.17807                        51.850          44.250          43.550
R08  20720782.608    20720782.178    20720782.136                       -2831.831       -2202.535       -2202.534                   110958887.57108  86301373.19808  86301370.19908                        50.500          48.550          48.050
R09  23353169.037    23353169.606    23353169.539                       -4143.685       -3222.869       -3222.867                   124704672.83207  96992531.62206  96992543.62306                        47.800          41.900          40.600
R10  20326837.592                                                       -2627.312                                                   108353515.92308                                                        50.500
R11  19658429.487    19658430.615    19658430.669                        1978.816        1539.080        1539.081                   105048692.40708  81704546.23408  81704551.23108                        53.200          50.450          49.950
R12  23037520.892    23037523.188    23037523.291                        4306.270        3349.322        3349.321                   123062318.21608  95715130.57307  95715131.56507                        49.200          42.800          42.100
R17  23915202.478    23915203.069    23915203.404                       -2875.599       -2236.579       -2236.578                   127975080.24807  99536171.12306  99536174.13506                        43.750          39.350          38.750
R18  23432011.035    23432012.754    23432013.102                        -169.254        -131.643        -131.643                   125081673.53507  97285759.64506  97285759.63206                        46.850          41.300          40.500
R19  24464915.857    24464916.293    24464916.224                        2656.357        2066.051        2066.055                   130870801.20406 101788402.49906 101788401.50706                        37.800          37.950          37.350
S23  38542841.142           3.312   202544412.31808        49.150
S26  40179942.048          67.496   211147018.59906        40.800
S36  38338995.706           -.704   201474122.41308        48.600
> 2020 06 25 00 01 00.0000000  0 42
C05  39932407.616    39932401.368    39932402.321          -2.288          -1.560          -1.509   207938528.19107 168967071.27006 160791238.24206        42.000          40.950          38.700
C07  39636297.200    39636285.744    39636291.416        -574.346        -466.781        -444.073   206396630.04807 167714133.91106 159598961.12707        44.000          41.350          43.200
C10  38204354.344    38204345.629    38204351.824          87.334          70.873          67.521   198940134.98107 161655130.65507 153833145.15507        45.300          44.250          47.300
C19  24183679.739    24183670.827                        2739.500        2226.143                   125930795.82208 102329063.71707                        49.300          45.600
C20  21967748.993    21967736.135                         147.771         120.058                   114391874.98908  92952734.38107                        52.750          47.050
C23  23455429.804                                       -2182.319                                   122138621.29108                                        52.700
E01  27875020.681    27875021.648    27875021.682    27875021.551       -2757.841       -2059.426       -2113.160       -2086.226   146484255.90047 109387619.96206 112241204.07507 110814414.18807        46.550          40.800          42.300          44.400
E03  27425378.164    27425380.268    27425379.754    27425380.421        2636.746        1969.156        2020.421        1994.824   144121352.36847 107623101.89607 110430652.89207 109026878.06507        46.700          43.650          45.450          47.400
E04  28468415.037    28468416.576    28468414.697    28468415.962       -2712.531       -2025.715       -2078.464       -2052.001   149602583.06647 111716243.81006 114630578.20006 113173413.16807        45.300          40.300          41.650          43.700
E05  23746724.849    23746726.655    23746725.964    23746726.364        1059.009         790.792         811.454         801.108   124789924.73649  93187310.65408  95618280.80209  94402797.40309        54.050          53.400          55.100          57.100
E09  22267463.830    22267465.420    22267464.245    22267464.778       -1485.043       -1108.899       -1137.804       -1123.371   117016361.47249  87382386.04308  89661917.97008  88522151.18109        54.750          52.700          53.900          56.100
E15  27400112.991    27400116.532    27400115.668    27400116.048       -1008.351        -752.939        -772.573        -762.756   143988576.65047 107523956.92607 110328922.58107 108926440.92607        47.250          43.400          44.750          46.850
E24  22919561.332    22919574.021    22919573.232    22919573.590        2233.014        1667.628        1711.076        1689.356   120443113.80748  89941342.83508  92287631.68208  91114489.43309        53.500          51.600          53.250          55.250
E25  28547538.208    28547541.429    28547539.585    28547540.728        3265.031        2438.396        2501.959        2470.232   150018325.90947 112026683.56306 114949113.01706 113487899.96007        43.700          38.750          39.500          42.100
E31  24322086.072    24322088.314    24322087.410    24322087.787        -587.053        -438.356        -449.762        -444.076   127813448.96948  95445133.48208  97934997.85008  96690065.34009        53.000          51.900          53.400          55.450
G05  20752065.269    20752064.467    20752063.847                        -525.318        -409.338        -409.338                   109052866.95708  84976267.50308  84976284.49508                        50.850          51.150          50.650
G07  21668747.074    21668745.626    21668745.283                       -1942.400       -1513.559       -1513.559                   113870082.17108  88729951.21608  88729950.21008                        51.400          49.400          51.150
G08  24902584.009    24902586.410    24902585.590    24902584.490        1504.714        1172.503        1172.505        1123.594   130863970.34707 101971932.96606 101971923.97007  97723095.04707        43.700          41.100          43.700          44.950
G09  23986193.461    23986194.700    23986194.416    23986194.534       -3197.079       -2491.234       -2491.233       -2387.422   126048349.20307  98219507.50007  98219505.50207  94127040.93807        46.100          45.550          46.200          47.950
G13  21845692.927                    21845690.846                        2526.980                        1969.076                   114799918.92008                  89454483.12107                        51.850                          44.950
G15  24358328.154    24358327.443    24358326.975                        3484.527        2715.216        2715.216                   128003885.89107  99743281.65706  99743287.66106                        46.300          41.550          40.900
G18  24721277.432    24721277.050    24721276.787    24721280.073        1259.946         981.776         981.774         940.930   129911194.51407 101229497.87807 101229500.85606  97011614.42207        44.250          43.150          38.350          43.750
G27  25059724.130    25059724.138    25059723.493    25059724.109          64.094          49.941          49.942          47.895   131689737.52507 102615384.55206 102615383.54607  98339742.15107        44.100          38.850          44.100          44.800
G28  22566842.578                    22566840.594                        2983.116                        2324.506                   118589564.01508                  92407453.04106                        49.800                          41.900
G30  20375693.568    20375695.062    20375694.320    20375693.924        -166.792        -129.968        -129.968        -124.583   107075028.94108  83435098.58208  83435101.58108  79958642.54309        52.550          53.200          52.450          56.200
I02  37462333.198         338.020   147010296.67507        42.600
I03  41391771.995         -45.600   162430219.45306        39.850
I04  41163588.968        -330.579   161534784.29206        37.250
I06  38262458.754          26.788   150150108.55706        41.000
R01  19142618.865    19142620.439    19142621.214                         175.967         136.863         136.863                   102328309.74508  79588706.87807  79588706.88107                        50.200          45.550          44.700
R02  22403658.486    22403659.920    22403659.938                        3824.016        2974.234        2974.234                   119550221.04008  92983524.79807  92983520.80607                        51.550          44.700          43.850
R08  20736690.620    20736690.367    20736690.292                       -2847.323       -2214.585       -2214.585                   111044074.97708  86367630.05008  86367627.05308                        49.550          48.400          48.100
R09  23376461.436    23376461.598    23376461.601                       -4148.229       -3226.401       -3226.401                   124829050.96407  97089270.19307  97089282.19806                        47.150          42.750          41.300
R10  20341674.920                                                       -2645.558                                                   108432607.83008                                                        49.750
R11  19647382.935    19647384.043    19647384.071                        1956.352        1521.608        1521.608                   104989663.34308  81658634.76508  81658639.76108                        53.550          50.550          50.000
R12  23013355.326    23013357.673    23013357.933                        4299.513        3344.068        3344.068                   122933230.99708  95614729.45207  95614730.44707                        48.250          43.150          42.250
R17  23931367.535    23931368.053    23931368.271                       -2891.221       -2248.727       -2248.725                   128061582.86407  99603450.96606  99603453.96206                        45.900          40.350          39.350
R18  23433035.596    23433037.373    23433037.780                        -195.341        -151.931        -151.931                   125087142.58107  97290013.34106  97290013.33506                        46.250          41.550          40.650
R19  24450068.582    24450069.331    24450069.125                        2638.456        2052.132        2052.133                   130791378.34406 101726629.22306 101726628.21606                        37.050          37.850          36.800
S23  38542822.232           3.244   202544314.16208        49.000
S26  40179558.275          67.156   211144987.86406        41.300
S36  38339000.511           -.826   201474147.93408        48.550
> 2020 06 25 00 01 30.0000000  0 41
C05  39932418.914    39932412.708    39932413.624          -1.718          -1.442          -1.436   207938587.14506 168967119.19306 160791283.85406        41.900          40.850          39.200
C07  39639616.406    39639604.868    39639610.663        -577.989        -469.514        -446.893   206413914.47807 167728178.91806 159612326.55107        44.400          41.000          43.250
C10  38203864.060    38203855.299    38203861.579          82.977          67.370          64.123   198937582.05107 161653056.19907 153831171.08107        45.100          43.900          47.700
C19  24167915.441    24167906.701                        2733.097        2220.781                   125848707.33608 102262360.12207                        49.300          45.650
C20  21966939.401    21966926.514                         133.225         108.236                   114387658.91408  92949308.46907                        52.400          46.900
C23  23468029.950                                       -2191.870                                   122204233.43408                                        52.750
E01  27890779.168    27890780.456    27890780.142    27890780.032       -2763.108       -2063.257       -2117.040       -2090.110   146567067.29847 109449459.60306 112304656.94107 110877060.44607        47.050          41.950          42.700          44.950
E03  27410327.102    27410329.191    27410328.800    27410329.408        2636.270        1968.473        2019.955        1994.182   144042258.14848 107564038.07107 110370048.25407 108967043.83907        48.250          44.300          44.900          47.400
E04  28483905.207    28483906.743    28483905.218    28483906.154       -2714.450       -2026.921       -2079.705       -2053.270   149683985.58547 111777031.42106 114692951.54706 113234993.65407        45.300          40.100          41.800          43.550
E05  23740701.157    23740702.866    23740702.232    23740702.616        1051.400         785.082         805.553         795.308   124758269.80449  93163672.23808  95594025.73309  94378850.65809        54.300          53.700          55.600          57.350
E09  22275964.164    22275965.721    22275964.664    22275964.995       -1492.924       -1114.882       -1143.963       -1129.398   117061030.56648  87415742.83808  89696144.93609  88555943.05909        53.800          52.900          54.450          56.400
E15  27405907.863    27405911.298    27405910.431    27405910.891       -1021.798        -763.048        -782.971        -773.040   144019028.21747 107546696.77507 110352255.65107 108949477.38707        46.600          42.950          45.000          46.800
E24  22906842.565    22906855.439    22906854.497    22906854.867        2222.751        1659.828        1703.102        1681.465   120376276.37248  89891431.78308  92236418.60008  91063927.36409        53.300          52.100          53.450          55.450
E25  28528897.915    28528900.892    28528899.781    28528900.001        3265.072        2438.243        2501.799        2470.113   149920369.62747 111953534.40506 114874055.60306 113413796.67307        43.350          39.850          41.700          43.550
E31  24325476.379    24325478.797    24325477.819    24325478.216        -600.770        -448.662        -460.303        -454.464   127831265.83548  95458438.29408  97948649.74408  96703543.69309        52.900          52.100          53.850          55.750
G05  20755120.054    20755119.246    20755118.551                        -545.124        -424.772        -424.772                   109068919.76008  84988776.16808  84988793.16308                        50.950          51.000          50.950
G07  21679862.479    21679861.043    21679860.706                       -1951.774       -1520.864       -1520.864                   113928493.94408  88775466.88008  88775465.87208                        51.800          49.150          51.950
G08  24894037.089    24894039.535    24894038.551    24894036.942        1489.381        1160.555        1160.555        1112.356   130819056.53707 101936935.23207 101936926.23207  97689555.51607        43.850          43.150          43.550          44.600
G09  24004456.505    24004457.728    24004457.438    24004457.421       -3200.880       -2494.193       -2494.193       -2390.453   126144321.90007  98294291.41407  98294289.40707  94198708.83707        46.050          45.400          45.850          47.800
G13  21831287.285                    21831285.454                        2519.756                        1963.447                   114724217.78408                  89395495.23607                        51.950                          44.600
G15  24338443.654    24338442.870    24338442.333                        3482.064        2713.297        2713.298                   127899392.60707  99661858.34306  99661864.33906                        45.200          40.050          40.750
G18  24714134.126    24714133.798    24714133.457    24714136.860        1242.328         968.046         968.046         927.834   129873655.98607 101200247.05307 101200250.06706  96983582.40507        43.800          43.200          40.900          43.950
G27  25059412.961    25059412.997    25059412.390    25059413.020          44.875          34.965          34.966          33.449   131688102.42007 102614110.40606 102614109.41507  98338521.12407        45.200          39.700          45.750          45.100
G28  22549839.832                    22549837.643                        2973.441                        2316.967                   118500213.14608                  92337828.98406                        48.450                          41.250
G30  20376688.601    20376689.941    20376689.268    20376688.720        -181.646        -141.541        -141.541        -135.663   107080256.85208  83439172.28708  83439175.28508  79962546.51409        52.550          53.000          52.450          56.450
I02  37459754.506         336.541   147000178.04707        42.800
I03  41392119.762         -45.478   162431584.41906        39.950
I04  41166119.476        -331.522   161544714.39806        37.250
I06  38262253.895          26.838   150149304.33606        41.300
R01  19141689.184    19141691.311    19141692.067                         155.045         120.591         120.590                   102323342.74108  79584843.64407  79584843.64507                        48.850          45.000          44.050
R02  22382170.140    22382171.801    22382171.924                        3820.242        2971.303        2971.301                   119435555.75908  92894340.74907  92894336.74207                        50.700          43.200          43.300
R08  20752683.829    20752683.856    20752683.825                       -2862.321       -2226.252       -2226.251                   111129719.09308  86434242.10308  86434239.10507                        49.800          48.100          47.550
R09  23399777.933    23399778.391    23399778.375                       -4152.458       -3229.689       -3229.690                   124953560.56207  97186110.95406  97186122.94806                        47.050          41.600          40.550
R10  20356613.640                                                       -2663.262                                                   108512239.67908                                                        49.550
R11  19636461.498    19636462.790    19636462.815                        1934.267        1504.431        1504.431                   104931303.55008  81613243.82708  81613248.82508                        52.900          50.350          49.800
R12  22989227.339    22989229.369    22989229.558                        4293.068        3339.054        3339.054                   122804342.63908  95514483.01507  95514484.01306                        48.400          42.350          41.850
R17  23947618.940    23947619.703    23947619.851                       -2906.299       -2260.456       -2260.458                   128148547.07007  99671089.74506  99671092.73506                        45.700          40.500          40.150
R18  23434205.304    23434207.232    23434207.431                        -220.991        -171.880        -171.882                   125093387.72307  97294870.67706  97294870.67606                        45.550          41.050          40.350
R19  24435322.753    24435323.403    24435323.217                        2620.609        2038.251        2038.252                   130712499.01605 101665278.62206 101665277.62706                        35.550          36.950          36.500
S23  38542803.267           3.411   202544215.24108        49.250
S36  38339004.763           -.485   201474168.52708        48.750
> 2020 06 25 00 02 00.0000000  0 41
C05  39932429.681    39932423.444    39932424.436          -1.724          -1.308          -1.114   207938643.10706 168967164.65906 160791327.10706        41.650          41.650          38.350
C07  39642956.334    39642944.769    39642950.480        -581.775        -472.503        -449.593   206431306.32007 167742311.21006 159625775.03507        44.100          41.550          42.250
C10  38203399.976    38203391.164    38203397.507          78.367          63.756          60.622   198935165.50207 161651092.55307 153829302.45007        45.200          44.700          46.850
C19  24152189.620    24152180.757                        2726.390        2215.434                   125766818.47508 102195818.72607                        50.100          45.900
C20  21966214.917    21966202.029                         118.540          96.271                   114383886.45808  92946243.04007                        52.700          47.550
C23  23480685.907                                       -2201.532                                   122270136.18708                                        52.500
E01  27906568.343    27906569.686    27906568.903    27906569.394       -2768.271       -2067.260       -2121.300       -2094.221   146650039.61847 109511419.45806 112368233.16106 110939828.47807        47.550          41.850          41.750          44.350
E03  27395281.228    27395283.247    27395282.508    27395283.151        2635.099        1967.830        2019.176        1993.499   143963190.40648 107504993.99907 110309463.88807 108907229.61707        48.000          44.850          44.000          47.000
E04  28499407.401    28499408.986    28499407.424    28499408.130       -2716.265       -2028.413       -2081.294       -2054.874   149765449.73847 111837865.07206 114755372.15106 113296620.79107        46.550          41.150          41.400          43.850
E05  23734722.105    23734723.728    23734723.093    23734723.477        1043.583         779.278         799.605         789.446   124726849.26249  93140208.84908  95569950.25209  94355081.22409        54.300          53.850          54.800          56.850
E09  22284510.158    22284512.163    22284511.051    22284511.413       -1500.976       -1120.872       -1150.104       -1135.475   117105942.34448  87449280.83008  89730557.83608  88589918.50609        53.300          53.000          53.400          55.750
E15  27411780.627    27411783.564    27411783.121    27411783.485       -1035.265        -773.026        -793.293        -783.145   144049888.72847 107569741.97307 110375902.02707 108972823.17307        46.950          42.750          44.950          46.400
E24  22894184.152    22894196.936    22894195.728    22894196.305        2212.135        1651.937        1695.022        1673.475   120309755.57548  89841757.16908  92185448.11608  91013604.81409        53.800          51.950          52.700          54.850
E25  28510258.315    28510260.937    28510260.441    28510260.325        3265.164        2438.272        2501.809        2470.083   149822417.48647 111880388.33506 114799001.37507 113339696.52507        44.050          40.550          42.350          43.950
E31  24328945.857    24328948.404    24328947.384    24328947.794        -614.601        -458.973        -470.920        -464.962   127849498.58548  95472053.66808  97962620.30108  96717336.66009        53.100          52.250          53.050          55.150
G05  20758289.033    20758288.078    20758287.381                        -565.031        -440.284        -440.284                   109085572.07208  85001752.00908  85001769.00008                        51.350          50.750          51.400
G07  21691032.754    21691031.283    21691030.944                       -1961.302       -1528.288       -1528.287                   113987194.01408  88821207.18008  88821206.17708                        51.800          48.750          51.600
G08  24885577.392    24885579.701    24885578.859    24885577.168        1474.278        1148.790        1148.789        1101.081   130774598.36707 101902292.54507 101902283.54007  97656356.25207        43.850          43.200          43.800          47.000
G09  24022743.965    24022745.495    24022745.203    24022745.022       -3205.756       -2497.993       -2497.993       -2393.618   126240423.77507  98369175.93807  98369173.94007  94270473.17508        46.000          45.700          45.700          48.000
G13  21816924.196                    21816922.287                        2512.321                        1957.652                   114648739.18508                  89336680.75007                        52.750                          43.750
G15  24318572.115    24318571.324    24318570.919                        3479.894        2711.607        2711.606                   127794967.57507  99580488.18406  99580494.18206                        46.300          40.000          38.600
G18  24707092.424    24707092.149    24707091.732    24707094.922        1224.619         954.252         954.251         914.391   129836652.01707 101171412.85107 101171415.84806  96955949.61407        44.250          42.250          38.350          43.400
G27  25059212.519    25059212.674    25059212.097    25059212.587          25.288          19.703          19.703          19.019   131687049.06807 102613289.65506 102613288.64607  98337734.52507        44.050          38.950          43.750          45.050
G28  22532893.292                    22532891.027                        2963.654                        2309.341                   118411159.94108                  92268436.88506                        48.550                          41.200
G30  20377769.242    20377770.436    20377769.762    20377769.138        -196.604        -153.197        -153.197        -146.766   107085934.63508  83443596.54008  83443599.54108  79966786.42309        52.850          52.700          52.950          56.700
I02  37457187.674         334.991   146990105.92907        42.550
I03  41392467.105         -45.287   162432947.85206        40.000
I04  41168658.512        -332.663   161554678.19306        37.150
I06  38262049.832          26.542   150148503.44506        41.600
R01  19140877.994    19140880.385    19140881.158                         133.983         104.208         104.208                   102319007.82308  79581472.02207  79581472.02507                        49.900          45.400          44.450
R02  22360704.361    22360706.237    22360706.260                        3816.247        2968.194        2968.194                   119321011.07808  92805250.46207  92805246.45807                        51.100          44.950          44.550
R08  20768762.510    20768762.092    20768762.043                       -2877.432       -2238.001       -2238.002                   111215818.43308  86501208.27808  86501205.27407                        50.150          48.000          47.500
R09  23423118.599    23423119.091    23423119.019                       -4156.628       -3232.933       -3232.933                   125078198.53608  97283051.55406  97283063.55206                        48.000          40.000          39.300
R10  20371652.998                                                       -2681.074                                                   108592407.90308                                                        50.500
R11  19625665.620    19625667.004    19625667.060                        1911.875        1487.015        1487.015                   104873614.24108  81568374.37708  81568379.37408                        52.850          50.600          49.950
R12  22965137.295    22965138.843    22965139.067                        4286.227        3333.733        3333.733                   122675656.27208  95414393.66507  95414394.66407                        50.100          43.700          43.050
R17  23963955.825    23963956.651    23963956.523                       -2921.437       -2272.228       -2272.229                   128235968.67007  99739084.33006  99739087.31406                        45.000          40.300          39.750
R18  23435520.695    23435522.651    23435522.630                        -246.910        -192.037        -192.038                   125100408.93407  97300331.65706  97300331.65206                        47.600          39.900          40.350
R19  24420679.371    24420679.936    24420679.711                        2602.451        2024.127        2024.127                   130634167.01605 101604353.84206 101604352.83206                        35.800          36.900          36.200
S23  38542784.233           3.422   202544114.61908        49.300
S36  38339009.741           -.922   201474190.89708        48.750
> 2020 06 25 00 02 30.0000000  0 41
C05  39932439.824    39932433.612    39932434.603          -1.414          -1.452          -1.023   207938696.10606 168967207.75306 160791368.10106        41.700          41.200          38.450
C07  39646316.824    39646305.243    39646310.879        -584.898        -475.348        -452.488   206448805.25807 167756530.55406 159639306.33607        43.550          41.500          42.400
C10  38202961.997    38202953.169    38202959.532          73.841          59.975          57.076   198932885.02007 161649239.49007 153827539.05707        45.250          44.600          46.950
C19  24136502.705    24136493.437                        2719.545        2209.803                   125685131.09108 102129441.04407                        49.600          45.800
C20  21965575.892    21965562.951                         103.525          84.082                   114380558.35908  92943538.68807                        52.200          47.400
C23  23493397.357                                       -2211.145                                   122336327.83508                                        52.400
E01  27922387.826    27922389.204    27922388.397    27922388.970       -2773.707       -2071.239       -2125.283       -2098.291   146733171.14947 109573498.18806 112431931.35107 111002716.94007        46.550          41.450          42.550          44.750
E03  27380240.137    27380242.358    27380241.440    27380241.982        2634.317        1967.176        2018.463        1992.783   143884149.87747 107445970.26807 110248900.38907 108847436.00707        46.550          44.400          44.700          47.300
E04  28514920.968    28514922.787    28514921.361    28514921.856       -2718.347       -2030.026       -2082.927       -2056.515   149846975.01247 111898744.35906 114817839.59706 113358294.15307        46.250          40.900          41.100          43.650
E05  23728787.787    23728789.388    23728788.691    23728789.112        1035.681         773.384         793.543         783.461   124695664.00348  93116921.15908  95546055.05509  94331489.78209        53.700          53.850          54.950          57.050
E09  22293102.572    22293104.698    22293103.575    22293104.019       -1509.096       -1126.971       -1156.401       -1141.701   117151096.68448  87482999.97708  89765156.61508  88624077.47109        53.800          52.850          53.550          55.900
E15  27417730.801    27417733.813    27417733.372    27417733.374       -1049.072        -783.449        -803.736        -793.561   144081157.03847 107593091.73307 110399860.87207 108996477.47607        47.050          42.950          44.700          46.500
E24  22881586.115    22881598.795    22881597.788    22881598.328        2201.513        1643.942        1686.807        1665.358   120243552.62848  89792319.90208  92134721.19008  90963522.72109        53.000          52.050          53.100          55.300
E25  28491619.711    28491622.511    28491622.023    28491621.890        3264.819        2437.898        2501.546        2469.720   149724471.02647 111807246.52907 114723951.52407 113265600.69907        44.350          42.000          43.750          45.650
E31  24332494.401    24332496.940    24332495.911    24332496.359        -628.489        -469.297        -481.542        -475.395   127868146.42148  95485979.00208  97976908.90708  96731443.62609        53.000          52.100          53.150          55.350
G05  20761572.094    20761571.059    20761570.390                        -584.995        -455.840        -455.840                   109102824.22808  85015195.23808  85015212.23308                        50.650          50.950          50.650
G07  21702257.610    21702256.067    21702255.702                       -1970.877       -1535.747       -1535.747                   114046180.61808  88867170.76508  88867169.76308                        51.100          48.950          51.250
G08  24877203.844    24877206.479    24877205.571    24877204.517        1459.230        1137.063        1137.063        1089.633   130730598.35207 101868006.86006 101867997.85507  97623499.20107        42.450          41.000          42.800          45.550
G09  24041055.896    24041057.531    24041057.216    24041057.031       -3209.971       -2501.278       -2501.278       -2396.930   126336653.93907  98444160.46507  98444158.46207  94342333.33507        45.100          45.550          45.700          47.200
G13  21802603.880                    21802601.799                        2504.749                        1951.753                   114573484.38408                  89278040.64107                        52.000                          44.650
G15  24298713.972    24298713.121    24298712.508                        3477.461        2709.711        2709.712                   127690612.49207  99499172.54606  99499178.55706                        45.650          40.850          39.950
G18  24700152.774    24700152.432    24700152.113    24700155.101        1206.586         940.197         940.197         901.113   129800183.86607 101142996.12107 101142999.12506  96928716.90207        44.000          42.850          39.850          43.850
G27  25059122.716    25059122.920    25059122.289    25059122.778           6.162           4.800           4.802           4.474   131686577.80707 102612922.42506 102612921.42507  98337382.64607        44.050          39.500          44.000          44.750
G28  22516004.408                    22516002.077                        2953.411                        2301.359                   118322407.45008                  92199279.09607                        49.600                          42.600
G30  20378935.236    20378936.375    20378935.704    20378935.092        -211.705        -164.965        -164.965        -158.063   107092061.59808  83448370.80208  83448373.80008  79971361.75709        52.600          52.900          52.650          56.650
I02  37454632.717         333.491   146980080.01407        42.500
I03  41392814.177         -45.259   162434309.76106        39.750
I04  41171205.843        -333.657   161564675.54306        36.650
I06  38261846.679          26.390   150147705.87606        41.350
R01  19140185.995    19140187.915    19140188.712                         112.825          87.754          87.754                   102315306.32508  79578593.09307  79578593.09507                        50.550          45.450          44.750
R02  22339261.592    22339263.339    22339263.247                        3812.031        2964.912        2964.913                   119206589.39708  92716255.82607  92716251.82407                        50.750          43.350          43.800
R08  20784925.694    20784925.230    20784925.251                       -2892.620       -2249.818       -2249.818                   111302371.51008  86568527.28708  86568524.29007                        49.200          48.650          47.850
R09  23446482.885    23446482.742    23446482.646                       -4160.632       -3236.045       -3236.046                   125202961.41807  97380089.38006  97380101.37406                        47.500          39.850          39.000
R10  20386792.371                                                       -2698.830                                                   108673109.09408                                                        50.150
R11  19614995.585    19614997.065    19614997.093                        1889.408        1469.540        1469.540                   104816597.03308  81524027.67608  81524032.67208                        53.100          50.700          50.150
R12  22941085.116    22941086.725    22941086.954                        4279.378        3328.407        3328.407                   122547174.26908  95314463.27807  95314464.28007                        49.200          43.800          43.050
R17  23980377.122    23980378.238    23980378.161                       -2936.649       -2284.060       -2284.061                   128323843.51307  99807431.40106  99807434.39506                        44.650          39.400          38.850
R18  23436981.387    23436983.476    23436982.927                        -272.784        -212.161        -212.163                   125108205.38408  97306395.56006  97306395.55306                        48.350          41.250          41.050
R19  24406139.065    24406139.585    24406139.230                        2583.419        2009.326        2009.325                   130556386.15306 101543857.62406 101543856.62806                        37.550          36.650          36.150
S23  38542765.244           3.442   202544013.95008        49.000
S36  38339015.571          -1.145   201474218.54408        48.450
> 2020 06 25 00 03 00.0000000  0 41
C05  39932449.460    39932443.219    39932444.219          -1.571          -1.327          -1.309   207938746.15107 168967248.40806 160791406.81506        42.050          41.500          38.500
C07  39649697.734    39649686.107    39649691.796        -588.699        -478.391        -455.198   206466410.86107 167770836.53506 159652920.09707        43.950          41.400          43.000
C10  38202550.210    38202541.300    38202547.657          69.097          56.236          53.550   198930740.46907 161647496.86907 153825880.75307        45.250          44.600          47.250
C19  24120854.528    24120845.136                        2712.676        2204.292                   125603646.96108 102063228.52607                        48.950          45.700
C20  21965022.265    21965009.450                          88.515          72.038                   114377675.24108  92941195.91007                        52.700          47.500
C23  23506163.881                                       -2220.889                                   122402806.55308                                        52.400
E01  27938237.111    27938238.522    27938237.913    27938238.330       -2779.005       -2075.201       -2129.189       -2102.164   146816460.17147 109635694.51306 112495750.16907 111065724.51107        46.950          41.150          43.250          45.350
E03  27365204.320    27365206.588    27365205.698    27365206.364        2633.295        1966.359        2017.633        1992.083   143805137.37447 107386967.44907 110188358.36907 108787663.57807        46.200          43.450          45.100          47.500
E04  28530446.368    28530448.085    28530446.421    28530447.247       -2720.852       -2031.592       -2084.633       -2058.101   149928560.85147 111959668.85306 114880353.43806 113420013.32407        45.250          40.200          40.750          43.800
E05  23722898.252    23722900.014    23722899.225    23722899.673        1027.637         767.438         787.472         777.452   124664714.86948  93093809.78608  95522340.77709  94308076.95509        53.550          53.850          55.100          57.600
E09  22301741.249    22301743.364    22301742.284    22301742.738       -1517.315       -1133.056       -1162.602       -1147.824   117196493.49448  87516900.18708  89799941.17808  88658419.85609        53.200          52.800          53.650          56.250
E15  27423758.371    27423761.263    27423760.752    27423760.961       -1062.804        -793.402        -814.176        -803.793   144112832.06347 107616745.15007 110424131.36607 109020439.43207        46.750          42.800          44.550          46.750
E24  22869048.768    22869061.644    22869060.512    22869061.041        2190.730        1635.997        1678.633        1657.281   120177668.69048  89743120.86108  92084238.69408  90913681.95209        53.250          52.250          53.100          55.750
E25  28472982.503    28472985.339    28472984.777    28472984.593        3264.337        2437.751        2501.286        2469.492   149626531.62447 111734109.97507 114648907.06107 113191510.19407        45.600          42.050          43.150          45.700
E31  24336121.808    24336124.284    24336123.230    24336123.753        -642.400        -479.650        -492.159        -485.900   127887208.49348  95500213.66608  97991514.91008  96745863.96109        52.700          52.100          53.250          55.800
G05  20764969.177    20764968.130    20764967.495                        -605.173        -471.563        -471.563                   109120675.84708  85029105.58608  85029122.57708                        51.350          50.850          51.500
G07  21713536.640    21713535.067    21713534.692                       -1980.539       -1543.277       -1543.277                   114105452.18408  88913356.39908  88913355.39408                        51.350          48.750          51.450
G08  24868918.675    24868920.997    24868920.062    24868918.410        1443.529        1124.831        1124.831        1077.990   130687058.14707 101834079.44706 101834070.44107  97590985.40107        43.650          41.900          44.050          44.950
G09  24059392.086    24059393.791    24059393.568    24059393.241       -3214.203       -2504.574       -2504.574       -2400.114   126433011.52707  98519244.27207  98519242.27107  94414288.64907        44.550          46.000          44.600          46.800
G13  21788326.127                    21788323.973                        2497.180                        1945.856                   114498454.20308                  89219575.57907                        51.850                          44.250
G15  24278869.313    24278868.506    24278867.923                        3474.730        2707.582        2707.582                   127586328.41807  99417912.24906  99417918.26206                        46.000          41.500          40.200
G18  24693315.192    24693314.910    24693314.598    24693317.661        1188.652         926.223         926.224         887.642   129764252.56607 101114997.71807 101115000.71706  96901885.11507        44.100          42.450          40.200          44.100
G27  25059143.837    25059144.042    25059143.442    25059143.874         -13.505         -10.523         -10.522          -9.996   131686689.00907 102613009.08806 102613008.08407  98337465.67607        44.950          39.200          44.900          44.650
G28  22499173.161                    22499171.091                        2943.119                        2293.342                   118233958.04808                  92130357.50307                        48.850                          42.450
G30  20380186.505    20380187.591    20380186.902    20380186.441        -226.793        -176.721        -176.721        -169.289   107098636.95408  83453494.46508  83453497.46208  79976271.92809        52.400          52.650          52.450          56.650
I02  37452089.601         331.707   146970100.74507        42.350
I03  41393160.936         -45.449   162435670.10806        40.000
I04  41173761.643        -334.974   161574706.29906        36.050
I06  38261644.301          26.331   150146911.60306        41.300
R01  19139612.350    19139614.289    19139615.068                          91.487          71.158          71.157                   102312239.60308  79576207.87207  79576207.87207                        49.250          45.300          44.400
R02  22317842.298    22317844.497    22317844.368                        3807.669        2961.523        2961.522                   119092293.11508  92627358.74907  92627354.74607                        49.650          44.600          43.800
R08  20801173.382    20801172.872    20801172.909                       -2907.843       -2261.655       -2261.656                   111389376.99708  86636198.23408  86636195.23307                        49.400          48.250          47.850
R09  23469869.690    23469869.566    23469869.559                       -4164.915       -3239.378       -3239.380                   125327846.10307  97477221.90706  97477233.88906                        46.250          41.050          40.250
R10  20402031.055                                                       -2716.542                                                   108754339.41208                                                        50.000
R11  19604451.735    19604453.189    19604453.259                        1866.784        1451.944        1451.943                   104760253.44908  81480204.89708  81480209.89108                        53.200          50.650          49.950
R12  22917071.742    22917073.475    22917073.650                        4272.190        3322.817        3322.817                   122418899.75708  95214694.29007  95214695.28807                        48.750          43.050          42.550
R17  23996882.445    23996883.649    23996883.738                       -2951.536       -2295.642       -2295.641                   128412167.52607  99876127.83606  99876130.83106                        44.200          39.800          38.700
R18  23438587.114    23438589.362    23438588.861                        -298.837        -232.425        -232.427                   125116776.67207  97313062.18006  97313062.15906                        45.350          41.000          40.650
R19  24391702.311    24391702.955    24391702.703                        2565.046        1995.039        1995.039                   130479159.83106 101483792.74506 101483791.74406                        38.100          38.400          37.150
S23  38542746.201           3.128   202543913.60108        48.950
S36  38339021.256          -1.014   201474249.89608        48.350
> 2020 06 25 00 03 30.0000000  0 41
C05  39932458.445    39932452.251    39932453.255          -1.724          -1.371          -1.433   207938793.20706 168967286.64206 160791443.20706        41.850          41.350          38.300
C07  39653099.138    39653087.403    39653093.143        -592.327        -481.179        -457.981   206484122.78307 167785228.92806 159666616.06806        43.800          41.200          41.800
C10  38202164.488    38202155.536    38202161.866          64.751          52.641          50.000   198928731.69407 161645864.57507 153824327.45207        45.000          44.600          47.100
C19  24105245.879    24105236.574                        2705.823        2198.720                   125522367.93908 101997182.68207                        49.250          46.200
C20  21964554.240    21964541.319                          73.763          59.944                   114375237.73408  92939215.24507                        52.350          47.400
C23  23518985.184                                       -2230.365                                   122469570.53808                                        52.250
E01  27954116.089    27954117.455    27954116.990    27954117.212       -2784.092       -2078.965       -2133.290       -2106.134   146899904.99147 109698007.19206 112559688.40207 111128849.96807        47.400          41.350          43.200          45.350
E03  27350174.149    27350176.518    27350175.807    27350176.287        2632.080        1965.636        2016.865        1991.206   143726153.61547 107327986.09407 110127838.37707 108727912.91407        47.100          44.100          45.800          47.950
E04  28545982.925    28545984.970    28545983.382    28545983.898       -2722.511       -2033.247       -2086.141       -2059.767   150010206.81447 112020638.26106 114942913.33606 113481777.97607        44.500          40.250          40.550          43.350
E05  23717053.761    23717055.739    23717054.885    23717055.340        1019.734         761.475         781.369         771.415   124634002.71148  93070875.38708  95498808.08609  94284843.41109        53.600          53.750          54.950          57.300
E09  22310425.730    22310428.252    22310427.031    22310427.605       -1525.470       -1139.107       -1168.833       -1153.959   117242132.73348  87550981.40508  89834911.47008  88692945.61009        53.250          52.750          53.400          56.050
E15  27429863.240    27429865.834    27429865.241    27429865.728       -1076.145        -803.663        -824.484        -814.162   144144912.66747 107640701.48607 110448712.61807 109044708.22907        46.700          42.650          44.500          46.600
E24  22856572.339    22856585.329    22856584.140    22856584.611        2180.070        1627.941        1670.464        1649.229   120112104.97548  89694160.95408  92034001.55908  90864083.42709        52.850          51.850          53.150          55.450
E25  28454346.850    28454349.554    28454349.062    28454348.863        3264.105        2437.465        2501.038        2469.256   149528600.55447 111660979.65606 114573868.98107 113117425.98907        45.050          41.200          42.400          44.800
E31  24339827.915    24339830.283    24339829.253    24339829.816        -656.169        -489.941        -502.749        -496.364   127906683.95948  95514757.03908  98006437.67508  96760597.03109        52.900          51.850          53.100          55.450
G05  20768480.316    20768479.170    20768478.620                        -625.100        -487.091        -487.091                   109139126.46008  85043482.68208  85043499.67508                        51.700          50.700          51.650
G07  21724869.635    21724868.163    21724867.785                       -1989.923       -1550.590       -1550.590                   114165007.84908  88959763.39208  88959762.38608                        51.200          48.550          50.950
G08  24860721.057    24860723.680    24860722.876    24860721.253        1428.030        1112.755        1112.754        1066.500   130643980.48807 101800512.52306 101800503.51007  97558817.08607        42.650          41.400          42.050          46.300
G09  24077752.372    24077754.169    24077753.813    24077753.399       -3218.152       -2507.649       -2507.651       -2403.292   126529495.66907  98594426.68907  98594424.68607  94486338.50007        45.550          44.800          45.550          46.100
G13  21774091.289                    21774089.289                        2489.631                        1939.972                   114423650.27808                  89161286.82007                        52.400                          44.050
G15  24259038.417    24259037.643    24259037.007                        3472.397        2705.764        2705.765                   127482116.37407  99336708.08206  99336714.09306                        46.150          41.600          40.650
G18  24686580.170    24686579.882    24686579.576    24686582.578        1170.427         912.023         912.022         874.255   129728859.26507 101087418.59307 101087421.59306  96875455.07907        44.600          42.950          39.600          43.700
G27  25059275.950    25059276.074    25059275.629    25059275.940         -32.717         -25.495         -25.495         -24.592   131687382.98107 102613549.81206 102613548.81307  98337983.87307        44.850          39.050          44.850          44.900
G28  22482399.980                    22482398.023                        2932.776                        2285.282                   118145814.41408                  92061674.16806                        48.750                          41.750
G30  20381522.901    20381523.980    20381523.269    20381522.902        -241.569        -188.236        -188.235        -180.417   107105659.96408  83458966.94108  83458969.94008  79981516.38809        52.400          52.350          52.600          56.450
I02  37449558.452         330.240   146960167.81507        42.400
I03  41393507.208         -45.550   162437028.87706        39.400
I04  41176325.868        -336.229   161584770.42305        35.450
I06  38261442.720          26.378   150146120.67506        41.150
R01  19139157.321    19139159.612    19139160.421                          70.280          54.663          54.663                   102309809.05408  79574317.42607  79574317.42807                        49.000          45.700          44.850
R02  22296447.112    22296449.311    22296449.254                        3803.281        2958.108        2958.108                   118978125.21308  92538561.51607  92538557.51607                        50.950          44.550          44.200
R08  20817505.110    20817504.865    20817504.923                       -2922.767       -2273.264       -2273.264                   111476833.13308  86704219.64608  86704216.64708                        49.300          48.600          48.100
R09  23493278.725    23493279.015    23493278.975                       -4168.867       -3242.452       -3242.454                   125452849.50107  97574446.71206  97574458.71406                        46.900          41.850          40.550
R10  20417368.371                                                       -2734.056                                                   108836095.50908                                                        50.650
R11  19594033.997    19594035.406    19594035.428                        1844.266        1434.429        1434.429                   104704584.47208  81436906.79208  81436911.79308                        53.050          50.900          50.050
R12  22893097.869    22893099.511    22893099.657                        4265.187        3317.369        3317.369                   122290835.56808  95115088.86807  95115089.86307                        49.750          43.950          43.300
R17  24013471.037    24013472.013    24013472.238                       -2966.561       -2307.321       -2307.323                   128500936.34406  99945170.29606  99945173.28006                        41.950          38.400          37.700
R18  23440337.650    23440340.000    23440339.861                        -324.534        -252.413        -252.413                   125126122.21007  97320330.93607  97320330.92906                        45.800          42.350          41.150
R19  24377369.831    24377370.831    24377370.396                        2546.478        1980.593        1980.594                   130402491.87106 101424162.10706 101424161.09705                        37.100          36.850          35.950
S23  38542726.832           3.319   202543813.21908        49.200
S36  38339024.838           -.778   201474276.98908        48.700
> 2020 06 25 00 04 00.0000000  0 41
C05  39932466.925    39932460.699    39932461.679          -1.366          -1.100           -.983   207938837.23206 168967322.43306 160791477.24006        41.750          41.550          38.200
C07  39656520.902    39656509.185    39656514.748        -595.974        -484.056        -460.680   206501940.67407 167799707.42206 159680393.99407        43.700          41.250          42.250
C10  38201804.743    38201795.808    38201802.134          59.940          48.802          46.488   198926858.27607 161644342.28507 153822878.81207        45.300          44.650          46.850
C19  24089677.074    24089667.570                        2698.927        2193.212                   125441295.88108 101931305.00007                        48.700          46.050
C20  21964171.736    21964158.809                          58.913          47.869                   114373246.53008  92937597.22507                        52.150          47.400
C23  23531861.032                                       -2239.759                                   122536618.05308                                        52.200
E01  27970024.458    27970025.822    27970025.399    27970025.459       -2789.291       -2082.838       -2137.168       -2110.009   146983503.92047 109760434.96106 112623744.70907 111192092.00407        47.650          41.050          42.200          44.950
E03  27335149.701    27335151.978    27335151.385    27335151.886        2631.173        1964.972        2016.226        1990.598   143647199.37647 107269026.79607 110067341.00707 108668184.57407        47.850          43.750          45.100          47.800
E04  28561531.039    28561533.065    28561531.552    28561531.858       -2724.639       -2034.426       -2087.648       -2061.080   150091912.49447 112081652.24406 115005518.99806 113543587.79907        46.350          41.750          40.900          44.650
E05  23711254.612    23711256.783    23711255.845    23711256.273        1011.853         755.595         775.323         765.437   124603528.45848  93048118.63708  95475457.68409  94261789.83509        53.600          53.900          54.850          57.700
E09  22319157.099    22319159.201    22319157.983    22319158.594       -1533.431       -1145.076       -1174.973       -1159.999   117288014.23249  87585243.56008  89870067.42608  88727654.66509        55.400          52.750          53.450          56.350
E15  27436044.939    27436047.775    27436046.936    27436047.372       -1089.642        -813.610        -834.828        -824.234   144177397.72147 107664959.83207 110473603.80107 109069282.99307        47.300          42.850          44.550          46.950
E24  22844156.914    22844169.978    22844169.156    22844169.486        2169.288        1619.979        1662.293        1641.113   120046862.62348  89645441.02008  91984010.68208  90814728.02509        53.500          52.200          53.150          55.950
E25  28435713.216    28435715.737    28435715.169    28435715.150        3263.686        2437.386        2500.885        2469.098   149430679.38747 111587856.69006 114498838.48007 113043349.26107        45.400          41.600          42.600          45.350
E31  24343612.485    24343614.789    24343613.841    24343614.386        -669.758        -500.165        -513.197        -506.668   127926571.97948  95529608.48808  98021676.55508  96775642.19509        52.850          51.950          53.000          55.800
G05  20772105.340    20772104.113    20772103.505                        -644.905        -502.523        -502.523                   109158175.52808  85058326.11108  85058343.10608                        51.450          50.700          51.450
G07  21736256.439    21736254.975    21736254.611                       -1999.303       -1557.899       -1557.899                   114224845.95008  89006390.47908  89006389.47508                        51.600          48.650          51.550
G08  24852612.089    24852614.223    24852613.224    24852612.522        1412.527        1100.670        1100.669        1054.923   130601366.88907 101767307.11606 101767298.10607  97526995.28107        43.950          40.650          44.200          46.100
G09  24096136.576    24096138.445    24096138.072    24096137.578       -3222.526       -2511.060       -2511.059       -2406.305   126626105.54107  98669707.08007  98669705.08307  94558482.21707        46.200          44.550          45.900          46.000
G13  21759899.692                    21759897.887                        2482.085                        1934.092                   114349073.51508                  89103175.06707                        52.100                          44.700
G15  24239221.466    24239220.721    24239220.103                        3469.988        2703.888        2703.887                   127377978.10207  99255561.41306  99255567.40906                        45.750          41.250          40.600
G18  24679947.581    24679947.250    24679947.053    24679949.864        1152.816         898.300         898.301         860.844   129694005.16907 101060259.58207 101060262.58806  96849427.70007        45.100          42.550          37.150          43.750
G27  25059518.916    25059519.050    25059518.525    25059518.907         -52.526         -40.931         -40.929         -39.058   131688659.94007 102614544.84706 102614543.84607  98338937.42807        44.300          39.050          44.300          44.650
G28  22465685.383                    22465683.285                        2922.627                        2277.371                   118057979.51508                  91993231.39706                        49.700                          41.250
G30  20382944.354    20382945.486    20382944.756    20382944.321        -256.440        -199.823        -199.823        -191.483   107113129.90208  83464787.68208  83464790.67708  79987094.59509        52.900          52.800          52.950          56.550
I02  37447039.093         328.876   146950281.06807        42.700
I03  41393853.016         -45.026   162438386.01706        39.450
I04  41178898.739        -337.109   161594867.73205        35.900
I06  38261241.984          26.142   150145333.06906        41.400
R01  19138821.959    19138824.194    19138824.947                          49.143          38.224          38.224                   102308015.66608  79572922.56807  79572922.57007                        50.050          45.600          44.700
R02  22275076.513    22275078.920    22275079.013                        3798.995        2954.775        2954.775                   118864088.56108  92449866.37407  92449862.37107                        50.650          44.900          44.600
R08  20833920.646    20833920.606    20833920.655                       -2937.733       -2284.904       -2284.903                   111564738.32108  86772590.35708  86772587.35708                        49.150          48.700          48.000
R09  23516709.542    23516709.767    23516709.947                       -4172.442       -3245.232       -3245.233                   125577968.15407  97671761.20406  97671773.20406                        47.700          41.850          40.250
R10  20432803.520                                                       -2751.310                                                   108918373.17508                                                        50.750
R11  19583742.760    19583744.249    19583744.282                        1821.776        1416.938        1416.938                   104649591.71208  81394134.66108  81394139.66008                        52.800          50.600          50.050
R12  22869163.750    22869165.508    22869165.585                        4258.054        3311.821        3311.821                   122162984.44108  95015649.14407  95015650.14207                        49.800          44.000          43.350
R17  24030141.646    24030143.206    24030143.304                       -2980.918       -2318.495       -2318.494                   128590145.68407 100014555.30506 100014558.30106                        44.050          40.050          39.600
R18  23442233.246    23442235.376    23442235.626                        -350.243        -272.413        -272.412                   125136241.14507  97328201.18206  97328201.17806                        47.350          41.650          40.850
R19  24363142.687    24363143.436    24363142.986                        2527.218        1965.614        1965.614                   130326385.93106 101364968.62206 101364967.62206                        36.300          36.300          36.050
S23  38542707.310           3.332   202543712.42308        49.350
S36  38339027.642           -.782   201474294.34808        48.650
> 2020 06 25 00 04 30.0000000  0 41
C05  39932474.805    39932468.593    39932469.579          -1.348          -1.196           -.956   207938878.31906 168967355.83606 160791509.03206        41.950          41.100          38.400
C07  39659962.932    39659951.292    39659956.691        -599.405        -486.934        -463.325   206519864.12007 167814271.69506 159694253.54507        44.050          41.100          42.050
C10  38201471.043    38201462.082    38201468.341          55.689          45.235          43.119   198925120.17007 161642929.93407 153821534.79707        45.450          44.650          47.000
C19  24074148.189    24074138.611                        2691.961        2187.481                   125360432.64408 101865597.02107                        49.050          45.850
C20  21963875.051    21963862.128                          44.030          35.800                   114371702.24608  92936342.36707                        52.350          47.300
C23  23544790.917                                       -2248.997                                   122603947.31208                                        52.050
E01  27985961.843    27985963.415    27985962.705    27985962.705       -2794.388       -2086.548       -2140.977       -2113.808   147067255.26747 109822976.52507 112687917.79007 111255449.33007        47.700          42.350          42.300          45.550
E03  27320130.941    27320133.244    27320132.701    27320133.113        2630.445        1964.181        2015.495        1989.927   143568275.46447 107210090.15107 110006866.87207 108608479.17707        46.600          43.650          45.200          47.650
E04  28577090.359    28577092.585    28577090.777    28577091.225       -2726.525       -2036.047       -2089.115       -2062.593   150173677.26547 112142710.40606 115068169.97206 113605442.36407        44.850          40.500          40.100          43.500
E05  23705500.987    23705503.249    23705502.218    23705502.648        1003.820         749.671         769.250         759.449   124573292.97248  93025540.17608  95452290.22109  94238916.87209        53.400          53.700          54.900          57.450
E09  22327934.900    22327936.214    22327935.197    22327935.614       -1541.534       -1151.056       -1181.087       -1166.067   117334137.91649  87619686.58608  89905408.96408  88762546.94909        54.950          52.450          53.550          56.100
E15  27442303.462    27442306.022    27442305.262    27442305.725       -1103.071        -823.611        -845.072        -834.371   144210286.11947 107689519.37707 110498804.01407 109094162.87007        47.000          42.850          44.300          46.800
E24  22831803.236    22831816.315    22831815.120    22831815.680        2158.668        1611.957        1654.014        1633.013   119981942.84048  89596961.96808  91934266.95608  90765616.63409        53.550          52.050          52.750          55.550
E25  28417081.600    28417083.999    28417083.418    28417083.556        3263.513        2437.023        2500.648        2468.798   149332769.43747 111514742.15606 114423816.59806 112969281.05507        44.650          41.250          41.850          44.800
E31  24347475.382    24347477.677    24347476.778    24347477.308        -683.464        -510.390        -523.699        -517.033   127946871.76448  95544767.41408  98037230.93108  96790998.84509        52.300          51.700          53.050          55.600
G05  20775844.064    20775842.858    20775842.229                        -664.825        -518.044        -518.044                   109177822.79108  85073635.67108  85073652.66208                        51.150          50.600          51.200
G07  21747696.733    21747695.169    21747694.821                       -2008.622       -1565.158       -1565.159                   114284964.80408  89053236.34208  89053235.33408                        50.950          48.450          50.950
G08  24844591.543    24844594.027    24844593.161    24844591.597        1396.768        1088.393        1088.391        1043.302   130559220.10606 101734465.48907 101734456.48106  97495522.03807        41.150          42.550          41.700          44.600
G09  24114544.580    24114546.398    24114545.922    24114545.627       -3226.445       -2514.114       -2514.114       -2409.464   126722840.21207  98745084.73207  98745082.73407  94630719.15207        45.600          43.750          45.850          45.600
G13  21745751.924                    21745749.813                        2474.383                        1928.090                   114274725.64408                  89045241.66307                        51.850                          44.850
G15  24219419.134    24219418.115    24219417.537                        3467.434        2701.897        2701.897                   127273915.16107  99174473.41906  99174479.41506                        45.400          40.200          37.650
G18  24673417.827    24673417.479    24673417.339    24673420.177        1134.491         884.020         884.020         847.476   129659691.33607 101033521.57507 101033524.57906  96823803.77907        43.350          42.650          39.800          44.000
G27  25059873.060    25059872.925    25059872.208    25059873.024         -71.587         -55.783         -55.783         -53.557   131690520.16207 102615994.36106 102615993.36507  98340326.55607        45.200          38.550          45.350          44.250
G28  22449030.213                    22449028.032                        2912.211                        2269.256                   117970455.36408                  91925030.77406                        50.150                          41.700
G30  20384450.736    20384451.901    20384451.180    20384450.663        -271.296        -211.400        -211.400        -202.573   107121045.99808  83470956.07108  83470959.07008  79993005.97109        52.350          52.750          52.250          56.300
I02  37444531.560         327.257   146940440.78207        42.350
I03  41394198.497         -45.219   162439741.65406        39.300
I04  41181480.342        -338.281   161604998.15405        35.800
I06  38261042.100          26.087   150144548.78806        41.100
R01  19138605.994    19138608.162    19138608.940                          27.686          21.533          21.533                   102306860.90708  79572024.41407  79572024.42007                        49.350          45.550          44.750
R02  22253730.858    22253733.557    22253733.669                        3794.500        2951.280        2951.279                   118750185.69208  92361275.29607  92361271.28607                        50.250          44.350          43.800
R08  20850419.706    20850419.892    20850419.920                       -2952.485       -2296.377       -2296.377                   111653091.48008  86841309.47607  86841306.47507                        49.150          47.850          47.400
R09  23540161.140    23540161.178    23540161.357                       -4176.196       -3248.152       -3248.153                   125703199.11007  97769163.06406  97769175.05606                        46.100          40.550          39.550
R10  20448336.027                                                       -2768.451                                                   109001169.97108                                                        50.850
R11  19573578.288    19573579.824    19573579.861                        1799.232        1399.403        1399.403                   104595276.38408  81351889.42108  81351894.41608                        52.650          50.600          50.050
R12  22845269.932    22845271.964    22845272.215                        4251.002        3306.337        3306.337                   122035349.27108  94916377.40807  94916378.39907                        48.800          43.600          42.950
R17  24046894.238    24046895.515    24046895.735                       -2995.343       -2329.711       -2329.711                   128679791.28907 100084279.67106 100084282.67306                        43.800          38.600          38.150
R18  23444273.864    23444275.817    23444276.098                        -375.956        -292.409        -292.411                   125147133.04807  97336672.65306  97336672.66606                        46.850          40.650          40.050
R19  24349020.735    24349021.920    24349021.481                        2509.069        1951.497        1951.500                   130250845.43005 101306214.89006 101306213.89306                        34.350          37.750          36.750
S23  38542687.719           3.504   202543610.98608        49.050
S36  38339032.274           -.641   201474315.99008        48.350
> 2020 06 25 00 05 00.0000000  0 41
C05  39932482.088    39932475.901    39932476.871          -1.579          -1.079           -.829   207938916.44507 168967386.80006 160791538.48406        42.000          41.100          38.500
C07  39663425.201    39663413.389    39663418.898        -602.719        -489.907        -466.085   206537892.83207 167828921.50906 159708194.48706        44.350          40.950          41.850
C10  38201163.228    38201154.285    38201160.464          51.073          41.432          39.475   198923517.00907 161641627.23207 153820295.13307        45.550          44.500          47.150
C19  24058659.927    24058650.033                        2684.572        2181.585                   125279780.11608 101800060.22907                        49.250          45.900
C20  21963664.323    21963651.486                          28.953          23.549                   114370605.51508  92935451.17707                        52.400          47.350
C23  23557774.492                                       -2258.347                                   122671556.52308                                        52.400
E01  28001928.014    28001929.534    28001928.385    28001928.988       -2799.441       -2090.460       -2144.961       -2117.668   147151157.34047 109885630.68307 112752206.42206 111318920.72707        46.950          42.750          41.900          45.050
E03  27305117.908    27305120.318    27305119.641    27305120.261        2629.041        1963.192        2014.453        1988.871   143489382.67247 107151176.70707 109946416.56107 108548797.30307        45.850          44.300          45.700          47.850
E04  28592660.534    28592663.104    28592661.118    28592661.883       -2728.407       -2037.434       -2090.678       -2064.117   150255500.79247 112203812.41306 115130865.97006 113667341.37007        42.600          41.250          40.650          43.850
E05  23699793.054    23699795.270    23699794.134    23699794.639         995.698         743.571         763.005         753.289   124543297.13348  93003140.69209  95429306.40009  94216225.21909        53.650          54.100          54.950          57.350
E09  22336757.902    22336759.384    22336758.343    22336758.708       -1549.713       -1157.216       -1187.415       -1172.305   117380503.74948  87654310.41508  89940936.01908  88797622.39109        53.050          53.000          53.550          56.050
E15  27448638.370    27448641.060    27448640.287    27448640.497       -1116.324        -833.836        -855.480        -844.615   144243576.64347 107714379.25007 110524312.37707 109119346.98207        45.950          42.700          44.550          46.300
E24  22819510.997    22819524.083    22819522.692    22819523.339        2147.648        1603.761        1645.639        1624.698   119917346.80048  89548724.67608  91884771.28708  90716750.15509        52.950          52.200          53.100          55.400
E25  28398452.359    28398454.715    28398453.797    28398454.185        3262.956        2436.592        2500.026        2468.324   149234872.15247 111441637.04306 114348804.40106 112895222.39507        45.750          41.000          41.800          44.250
E31  24351416.406    24351418.756    24351417.864    24351418.403        -697.243        -520.726        -534.304        -527.517   127967582.38448  95560233.14108  98053100.11008  96806666.30009        52.050          52.100          53.150          55.450
G05  20779696.554    20779695.329    20779694.694                        -684.968        -533.740        -533.740                   109198067.76208  85089410.96108  85089427.95508                        51.400          50.650          51.400
G07  21759190.183    21759188.505    21759188.150                       -2018.124       -1572.568       -1572.569                   114345362.95808  89100299.80208  89100298.79408                        51.250          48.000          51.050
G08  24836660.530    24836663.184    24836662.478    24836660.553        1381.122        1076.199        1076.200        1031.482   130517541.86907 101701988.98907 101701979.98707  97464398.70707        43.650          42.550          43.500          47.700
G09  24132976.078    24132977.942    24132977.503    24132977.024       -3230.835       -2517.534       -2517.534       -2412.667   126819698.88007  98820559.01407  98820557.00607  94703048.66307        45.000          43.850          45.550          46.200
G13  21731647.838                    21731645.719                        2466.674                        1922.085                   114200607.52608                  88987487.31207                        52.050                          44.400
G15  24199631.116    24199630.214    24199629.526                        3464.799        2699.843        2699.842                   127169928.79307  99093445.08906  99093451.08406                        46.550          40.900          38.900
G18  24666990.991    24666990.906    24666990.751    24666993.564        1116.543         870.035         870.034         833.878   129625918.81307 101007205.35707 101007208.35706  96798584.08307        43.800          42.850          39.800          44.400
G27  25060338.066    25060337.940    25060337.305    25060338.121         -91.280         -71.127         -71.128         -68.172   131692963.90007 102617898.57906 102617897.58007  98342151.42807        43.500          39.250          43.150          44.300
G28  22432434.903                    22432432.758                        2901.533                        2260.935                   117883245.07508                  91857074.71207                        49.800                          42.350
G30  20386041.846    20386043.047    20386042.381    20386041.776        -286.349        -223.129        -223.129        -213.802   107129407.48508  83477471.51508  83477474.51408  79999249.93509        52.100          52.750          52.100          56.800
I02  37442035.934         325.638   146930646.98907        42.800
I03  41394543.501         -45.281   162441095.68306        39.650
I04  41184070.382        -339.515   161615161.54506        36.700
I06  38260843.053          25.941   150143767.85906        41.700
R01  19138509.714    19138511.736    19138512.519                           6.242           4.854           4.854                   102306345.60908  79571623.63207  79571623.63607                        50.100          46.000          44.950
R02  22232410.921    22232413.561    22232413.693                        3789.725        2947.565        2947.565                   118636419.06308  92272790.13407  92272786.13507                        49.750          45.350          44.650
R08  20867002.179    20867002.489    20867002.460                       -2967.501       -2308.059       -2308.058                   111741890.68908  86910375.50808  86910372.51008                        49.300          48.400          48.000
R09  23563633.203    23563633.454    23563633.503                       -4179.911       -3251.042       -3251.042                   125828539.28707  97866649.85806  97866661.85406                        46.950          41.800          40.750
R10  20463965.092                                                       -2785.718                                                   109084481.16408                                                        51.700
R11  19563540.937    19563542.381    19563542.365                        1776.500        1381.722        1381.722                   104541639.65308  81310171.97808  81310176.97208                        53.450          50.650          50.100
R12  22821417.313    22821419.287    22821419.518                        4243.410        3300.434        3300.433                   121907933.01708  94817275.92407  94817276.91507                        50.200          44.050          43.800
R17  24063727.589    24063728.782    24063728.989                       -3009.914       -2341.047       -2341.047                   128769869.10307 100154340.16706 100154343.16006                        45.900          40.000          39.550
R18  23446458.920    23446460.490    23446460.552                        -401.930        -312.615        -312.614                   125158796.93507  97345744.58306  97345744.59206                        45.850          39.800          40.250
R19  24335005.501    24335006.795    24335006.402                        2489.004        1935.891        1935.893                   130175874.27006 101247904.01806 101247903.02806                        37.200          38.050          37.300
S23  38542668.233           3.192   202543508.73808        48.950
S36  38339036.635           -.976   201474337.02108        48.200
> 2020 06 25 00 05 30.0000000  0 41
C05  39932488.852    39932482.656    39932483.648          -1.498           -.977           -.668   207938951.49907 168967415.28306 160791565.60606        42.500          41.200          38.650
C07  39666907.595    39666895.795    39666901.281        -606.312        -492.725        -468.679   206556026.29907 167843656.43906 159722216.44007        44.300          41.250          42.650
C10  38200881.317    38200872.368    38200878.530          46.521          37.935          36.072   198922048.67507 161640434.08707 153819159.73507        45.550          44.650          47.500
C19  24043212.205    24043202.338                        2677.718        2175.761                   125199340.06408 101734696.12507                        49.500          46.200
C20  21963539.767    21963527.111                          14.089          11.482                   114369956.90208  92934924.12507                        52.900          47.600
C23  23570811.515                                       -2267.613                                   122739443.90808                                        52.300
E01  28017922.368    28017923.998    28017922.775    28017923.668       -2804.273       -2094.079       -2148.646       -2121.382   147235208.44247 109948396.07806 112816609.19407 111382504.80607        46.750          41.900          42.750          45.150
E03  27290111.023    27290113.816    27290112.810    27290113.494        2628.047        1962.535        2013.714        1988.068   143410521.69147 107092287.04907 109885990.64107 108489139.52308        46.950          44.550          45.950          48.050
E04  28608242.028    28608244.429    28608242.668    28608243.499       -2730.636       -2038.937       -2092.112       -2065.626   150337382.48947 112264957.83207 115193606.47007 113729284.33207        45.850          42.600          42.600          45.450
E05  23694130.889    23694132.995    23694131.804    23694132.403         987.771         737.597         756.864         747.217   124513541.77849  92980920.79009  95406506.85109  94193715.49609        54.000          54.050          55.150          57.400
E09  22345626.918    22345628.620    22345627.477    22345627.910       -1557.651       -1163.222       -1193.584       -1178.415   117427111.59149  87689114.95208  89976648.50808  88832880.90709        55.000          52.900          53.750          56.100
E15  27455049.434    27455052.194    27455051.575    27455051.666       -1129.756        -843.575        -865.681        -854.608   144277268.19647 107739538.51307 110550127.97607 109144834.41807        45.650          42.400          44.250          46.100
E24  22807280.548    22807293.471    22807292.569    22807293.028        2136.865        1595.692        1637.343        1616.505   119853075.61648  89500729.96308  91835524.55408  90668129.43509        53.750          52.250          53.400          55.650
E25  28379825.815    28379828.214    28379826.978    28379827.620        3262.582        2436.340        2499.826        2468.064   149136988.97347 111368542.49506 114273803.02707 112821174.43507        45.350          41.550          42.300          44.700
E31  24355435.344    24355437.854    24355436.982    24355437.509        -710.980        -530.865        -544.758        -537.804   127988702.96948  95576005.00208  98069283.41508  96822643.88309        52.000          52.000          53.300          55.450
G05  20783662.704    20783661.453    20783660.802                        -704.779        -549.179        -549.179                   109218909.94708  85105651.61208  85105668.60808                        51.350          50.550          51.100
G07  21770736.534    21770734.735    21770734.370                       -2027.236       -1579.664       -1579.664                   114406038.92508  89147579.78108  89147578.77408                        51.650          48.250          51.450
G08  24828819.100    24828821.224    24828820.255    24828819.713        1365.547        1064.062        1064.064        1019.730   130476334.11807 101669879.06406 101669870.06007  97433626.75107        42.050          40.300          42.400          47.650
G09  24151431.093    24151432.879    24151432.402    24151432.101       -3234.595       -2520.463       -2520.463       -2415.567   126916680.61707  98896129.21007  98896127.21007  94775470.10107        45.350          42.700          45.350          46.300
G13  21717587.644                    21717585.395                        2458.975                        1916.085                   114126720.49008                  88929913.00507                        52.550                          44.150
G15  24179857.974    24179857.177    24179856.486                        3462.220        2697.834        2697.836                   127066020.30707  99012477.45006  99012483.46006                        45.850          41.250          41.050
G18  24660667.277    24660667.381    24660666.975    24660670.168        1098.396         855.896         855.893         820.372   129592688.65006 100981311.75907 100981314.74806  96773769.38607        41.850          42.950          39.650          44.550
G27  25060914.125    25060914.150    25060913.739    25060914.059        -110.813         -86.349         -86.349         -82.713   131695991.30707 102620257.60206 102620256.60407  98344412.13907        44.900          38.950          45.050          44.300
G28  22415899.408                    22415897.294                        2891.053                        2252.769                   117796351.14308                  91789365.18206                        49.300                          41.900
G30  20387717.463    20387718.787    20387718.153    20387717.482        -301.055        -234.588        -234.588        -224.754   107138213.52708  83484333.37108  83484336.37108  80005825.88509        52.200          52.700          52.200          56.700
I02  37439552.050         323.989   146920899.48007        42.800
I03  41394888.162         -45.401   162442448.16906        39.450
I04  41186668.876        -340.347   161625357.81206        37.400
I06  38260644.859          25.759   150142990.24806        41.400
R01  19138533.263    19138535.225    19138536.037                         -14.972         -11.644         -11.644                   102306471.21508  79571721.33107  79571721.33407                        49.700          45.800          44.850
R02  22211117.165    22211119.937    22211120.033                        3785.064        2943.937        2943.938                   118522791.90808  92184413.48307  92184409.48907                        50.200          44.650          44.400
R08  20883668.057    20883668.256    20883668.222                       -2982.184       -2319.475       -2319.475                   111831134.46008  86979787.34408  86979784.34407                        49.450          48.450          47.900
R09  23587125.512    23587125.931    23587125.944                       -4183.297       -3253.679       -3253.679                   125953985.57707  97964219.15407  97964231.14606                        47.650          42.250          41.800
R10  20479690.083                                                       -2802.628                                                   109168303.57208                                                        52.000
R11  19553630.890    19553632.173    19553632.150                        1753.801        1364.067        1364.067                   104488682.70008  81268983.24008  81268988.24008                        53.500          50.650          50.000
R12  22797605.958    22797608.131    22797608.239                        4235.890        3294.582        3294.582                   121780738.31808  94718346.74807  94718347.74407                        48.900          44.500          43.750
R17  24080640.840    24080642.045    24080641.858                       -3024.097       -2352.072       -2352.074                   128860374.51807 100224733.26506 100224736.25206                        45.050          38.700          38.700
R18  23448788.046    23448790.129    23448789.611                        -427.454        -332.464        -332.465                   125171232.21707  97355416.51906  97355416.49906                        46.350          40.100          40.600
R19  24321097.456    24321098.633    24321098.254                        2470.196        1921.263        1921.264                   130101475.72106 101190038.48906 101190037.48906                        38.000          39.100          38.150
S23  38542648.379           3.312   202543405.87508        49.250
S36  38339041.796          -1.233   201474363.68908        48.600
> 2020 06 25 00 06 00.0000000  0 41
C05  39932495.003    39932488.814    39932489.770          -1.096           -.832           -.695   207938983.57107 168967441.36206 160791590.42606        42.300          41.150          38.800
C07  39670409.988    39670398.186    39670403.847        -609.761        -495.307        -471.260   206574264.20907 167858476.22106 159736319.13207        44.250          40.850          42.500
C10  38200625.129    38200616.251    38200622.326          42.232          34.329          32.673   198920714.78307 161639350.19907 153818128.29207        45.800          44.700          47.650
C19  24027805.506    24027795.788                        2670.637        2170.134                   125119114.36108 101669506.18607                        49.450          46.000
C20  21963501.492    21963488.756                           -.832           -.600                   114369757.05408  92934761.73107                        53.050          47.500
C23  23583901.587                                       -2276.702                                   122807607.68108                                        52.000
E01  28033944.753    28033946.392    28033945.344    28033946.154       -2809.011       -2097.636       -2152.343       -2124.958   147319406.95147 110011271.58107 112881124.92807 111446200.42607        47.250          42.000          43.350          46.050
E03  27275110.592    27275113.229    27275112.508    27275113.000        2626.952        1961.684        2013.018        1987.352   143331693.35047 107033421.76707 109825589.74507 108429506.42808        47.900          44.600          46.200          48.600
E04  28623834.473    28623836.779    28623835.211    28623835.743       -2732.315       -2040.185       -2093.655       -2066.905   150419321.78447 112326146.30206 115256391.16606 113791270.90407        43.650          40.550          40.500          43.800
E05  23688514.686    23688516.615    23688515.459    23688516.091         979.782         731.635         750.796         741.217   124484027.82848  92958881.15008  95383892.26109  94171388.37909        53.650          53.950          55.250          57.950
E09  22354542.546    22354543.813    22354542.728    22354543.105       -1565.635       -1169.113       -1199.630       -1184.388   117473961.25749  87724100.11308  90012546.32108  88868322.39209        54.900          52.750          53.800          56.550
E15  27461536.769    27461539.481    27461538.817    27461538.933       -1143.175        -853.561        -875.805        -864.613   144311359.54647 107764996.37407 110576249.93107 109170624.32207        45.950          42.350          43.800          46.350
E24  22795112.311    22795125.096    22795124.058    22795124.681        2126.155        1587.642        1629.105        1608.412   119789130.45448  89452978.72408  91786527.62308  90619755.34609        53.650          52.250          53.150          56.000
E25  28361202.088    28361204.754    28361203.458    28361203.869        3262.037        2435.937        2499.432        2467.598   149039121.27847 111295459.51306 114198813.52107 112747138.19407        44.800          41.700          43.150          45.650
E31  24359532.124    24359534.794    24359533.978    24359534.455        -724.436        -540.944        -555.073        -547.985   128010232.61648  95592082.34408  98085780.16108  96838930.92309        51.900          51.950          53.450          56.000
G05  20787742.525    20787741.213    20787740.585                        -724.660        -564.670        -564.670                   109240349.13508  85122357.48108  85122374.47408                        51.350          51.000          51.300
G07  21782335.463    21782333.612    21782333.253                       -2036.358       -1586.773       -1586.773                   114466991.41308  89195075.22908  89195074.22308                        51.750          48.300          51.850
G08  24821066.785    24821069.437    24821068.400    24821067.982        1349.789        1051.787        1051.788        1008.117   130435599.36806 101638137.73707 101638128.73506  97403207.98707        41.650          42.650          41.700          45.800
G09  24169909.290    24169911.039    24169910.583    24169910.501       -3238.503       -2523.508       -2523.509       -2418.510   127013784.53107  98971794.62307  98971792.61607  94847982.78107        44.750          43.400          44.900          46.750
G13  21703571.488                    21703569.314                        2451.267                        1910.078                   114053065.64308                  88872519.63507                        52.350                          44.800
G15  24160099.765    24160098.896    24160098.137                        3459.572        2695.770        2695.768                   126962190.95107  98931571.46806  98931577.47206                        45.750          40.700          39.950
G18  24654447.381    24654447.236    24654446.816    24654450.132        1080.674         842.086         842.086         806.865   129560001.84107 100955841.55007 100955844.54506  96749360.46707        44.200          43.350          39.600          44.950
G27  25061601.162    25061601.426    25061600.846    25061601.372        -130.203        -101.458        -101.458         -97.222   131699602.55307 102623071.55506 102623070.55707  98347108.85107        44.650          39.300          44.500          44.050
G28  22399424.422                    22399422.425                        2880.598                        2244.624                   117709776.12608                  91721904.15606                        49.150                          41.950
G30  20389477.580    20389478.970    20389478.307    20389477.633        -315.537        -245.873        -245.873        -235.713   107147463.38208  83491541.05208  83491544.05208  80012733.25409        52.650          52.950          52.600          56.650
I02  37437079.958         322.877   146911198.37207        42.700
I03  41395232.500         -44.910   162443799.01706        39.350
I04  41189275.705        -341.458   161635586.86206        37.750
I06  38260447.467          25.771   150142216.00206        41.250
R01  19138676.662    19138678.815    19138679.630                         -36.266         -28.207         -28.207                   102307238.71408  79572318.26907  79572318.27407                        48.800          45.550          44.600
R02  22189850.116    22189852.917    22189852.920                        3780.425        2940.333        2940.332                   118409306.74208  92096147.28607  92096143.28707                        50.350          44.650          44.400
R08  20900416.461    20900416.641    20900416.603                       -2996.849       -2330.882       -2330.882                   111920821.22308  87049543.71108  87049540.70907                        49.400          48.050          47.550
R09  23610637.027    23610637.241    23610637.231                       -4186.533       -3256.195       -3256.194                   126079534.56807  98061868.34506  98061880.33806                        46.700          40.850          40.550
R10  20495510.229                                                       -2819.376                                                   109252633.28408                                                        51.800
R11  19543848.345    19543849.437    19543849.476                        1731.148        1346.450        1346.450                   104436406.78708  81228324.21308  81228329.20808                        53.050          50.400          49.850
R12  22773836.572    22773839.065    22773839.136                        4228.525        3288.854        3288.853                   121653768.16608  94619592.22607  94619593.22207                        49.300          43.950          43.400
R17  24097633.331    24097634.380    24097634.222                       -3038.026       -2362.909       -2362.908                   128951303.55307 100295455.87406 100295458.86206                        45.200          39.650          38.100
R18  23451261.827    23451264.407    23451264.072                        -453.000        -352.331        -352.332                   125184438.24307  97365687.89706  97365687.87306                        46.950          41.600          40.650
R19  24307297.680    24307298.482    24307298.200                        2451.126        1906.436        1906.434                   130027653.51206 101132621.21906 101132620.21106                        37.350          38.700          37.800
S23  38542629.510           3.492   202543302.81708        49.250
S36  38339046.835          -1.067   201474392.87408        48.650
> 2020 06 25 00 06 30.0000000  0 41
C05  39932500.654    39932494.417    39932495.418          -1.055           -.745          -1.049   207939012.66007 168967465.01006 160791612.95206        42.100          41.000          38.550
C07  39673932.414    39673920.476    39673926.185        -613.193        -498.173        -474.126   206592606.12407 167873380.53606 159750502.27807        44.050          40.300          42.000
C10  38200394.758    38200385.913    38200391.980          37.515          30.560          29.157   198919515.30807 161638375.51707 153817200.77307        45.550          44.250          47.100
C19  24012440.545    24012430.572                        2663.223        2164.208                   125039104.87608 101604491.91907                        49.350          45.800
C20  21963549.457    21963536.640                         -15.981         -12.942                   114370006.55508  92934964.47007                        52.650          47.150
C23  23597044.339                                       -2286.048                                   122876046.09908                                        51.650
E01  28049994.939    28049996.314    28049995.784    28049996.143       -2813.933       -2101.317       -2155.987       -2128.681   147403751.12147 110074255.86406 112945752.24907 111510006.23107        47.400          41.300          43.350          45.400
E03  27260116.514    27260119.109    27260118.183    27260118.859        2625.918        1960.888        2012.074        1986.447   143252898.48447 106974581.47507 109765214.48007 108369898.65307        46.700          45.050          44.600          47.950
E04  28639437.939    28639440.140    28639438.560    28639439.154       -2734.365       -2041.774       -2094.649       -2068.365   150501318.30746 112387377.51506 115319219.67106 113853300.78006        40.900          38.400          37.200          41.050
E05  23682944.478    23682946.328    23682945.313    23682945.879         971.478         725.532         744.486         735.000   124454756.15948  92937022.42508  95361463.31309  94149244.54209        53.550          53.750          54.950          57.450
E09  22363503.322    22363505.002    22363503.940    22363504.303       -1573.915       -1175.242       -1205.874       -1190.551   117521052.77248  87759265.83808  90048629.40808  88903946.79709        52.150          52.600          53.350          56.000
E15  27468099.873    27468102.690    27468101.813    27468102.089       -1156.309        -863.550        -885.983        -874.755   144345849.54047 107790751.90507 110602677.34007 109196715.79307        45.800          42.300          43.250          45.800
E24  22783006.274    22783018.953    22783017.927    22783018.488        2115.050        1579.455        1620.670        1600.043   119725512.44148  89405471.77208  91737781.35608  90571628.73809        53.900          51.850          53.250          55.650
E25  28342581.458    28342584.507    28342583.437    28342583.452        3261.272        2435.314        2498.883        2467.186   148941270.47547 111222389.13306 114123836.94707 112673114.70707        43.950          41.500          42.900          45.200
E31  24363706.646    24363709.416    24363708.680    24363709.086        -738.198        -551.214        -565.537        -558.389   128032170.50148  95608464.53108  98102589.70508  96855526.79409        51.450          51.750          53.100          55.450
G05  20791935.630    20791934.419    20791933.811                        -744.558        -580.176        -580.176                   109262384.31408  85139527.74308  85139544.73508                        51.000          50.800          50.900
G07  21793986.646    21793984.843    21793984.456                       -2045.638       -1594.003       -1594.003                   114528219.01808  89242785.04308  89242784.03608                        51.050          48.100          51.000
G08  24813406.190    24813408.676    24813407.955    24813406.296        1333.979        1039.468        1039.468         996.200   130395339.56406 101606766.50807 101606757.50106  97373143.82407        41.850          43.500          41.400          46.600
G09  24188410.567    24188412.346    24188411.984    24188411.951       -3242.951       -2526.976       -2526.975       -2421.660   127111009.84407  99047554.60507  99047552.59707  94920586.07807        44.550          43.050          44.650          47.150
G13  21689599.768                    21689597.618                        2443.369                        1903.924                   113979643.97308                  88815307.95407                        51.750                          45.800
G15  24140356.929    24140356.200    24140355.633                        3456.814        2693.622        2693.621                   126858442.54607  98850728.58206  98850734.58306                        46.100          41.150          40.250
G18  24648330.719    24648330.710    24648330.269    24648333.816        1062.264         827.742         827.743         793.217   129527859.50307 100930795.58607 100930798.58806  96725358.11807        43.200          42.350          41.050          45.250
G27  25062399.478    25062399.714    25062399.275    25062399.677        -149.652        -116.615        -116.614        -111.708   131703797.78407 102626340.57006 102626339.56407  98350241.65907        45.300          39.600          45.700          44.200
G28  22383011.154                    22383008.818                        2869.703                        2236.133                   117623522.73308                  91654693.71107                        50.150                          43.000
G30  20391322.036    20391323.388    20391322.714    20391322.063        -330.678        -257.671        -257.671        -246.817   107157156.25508  83499093.94308  83499096.94308  80019971.43409        52.300          52.600          52.400          56.400
I02  37434619.603         321.035   146901543.77807        42.450
I03  41395576.194         -44.958   162445148.27106        38.650
I04  41191890.881        -342.698   161645848.55806        36.850
I06  38260251.004          25.645   150141445.07406        41.300
R01  19138940.282    19138942.675    19138943.532                         -57.800         -44.957         -44.957                   102308649.27908  79573415.37007  79573415.37307                        49.000          45.650          44.700
R02  22168610.080    22168612.854    22168612.830                        3775.459        2936.469        2936.469                   118295966.11508  92007993.48707  92007989.49507                        50.900          44.550          44.450
R08  20917247.230    20917247.366    20917247.436                       -3011.783       -2342.499       -2342.498                   112010949.77908  87119643.69408  87119640.69707                        49.600          48.100          47.400
R09  23634167.086    23634167.030    23634167.144                       -4190.126       -3258.989       -3258.991                   126205183.53007  98159595.27606  98159607.27906                        46.900          40.850          39.700
R10  20511424.910                                                       -2836.284                                                   109337466.83708                                                        52.050
R11  19534193.374    19534194.411    19534194.462                        1708.307        1328.684        1328.684                   104384813.24308  81188195.91408  81188200.91208                        53.200          50.400          49.850
R12  22750109.952    22750112.402    22750112.491                        4220.808        3282.852        3282.852                   121527025.13608  94521014.35107  94521015.34407                        49.400          43.600          43.050
R17  24114704.041    24114705.064    24114705.180                       -3052.047       -2373.815       -2373.814                   129042651.85407 100366504.56306 100366507.54706                        45.100          38.100          36.450
R18  23453879.945    23453882.401    23453882.675                        -478.872        -372.461        -372.459                   125198413.66807  97376557.64506  97376557.64106                        46.750          41.300          40.050
R19  24293605.968    24293606.649    24293606.295                        2431.652        1891.284        1891.285                   129954411.02206 101075654.81106 101075653.81606                        38.150          36.850          36.250
S23  38542610.465           3.299   202543199.87808        49.050
S36  38339050.947           -.691   201474419.28408        48.250
> 2020 06 25 00 07 00.0000000  0 41
C05  39932505.654    39932499.407    39932500.402           -.659           -.622           -.390   207939038.75807 168967486.23606 160791633.13306        42.100          41.200          38.550
C07  39677474.692    39677462.772    39677468.530        -616.501        -500.833        -476.639   206611051.70707 167888369.05206 159764765.54807        43.900          40.700          42.400
C10  38200190.037    38200181.287    38200187.411          33.373          27.192          25.787   198918449.83707 161637509.74307 153816376.90307        45.400          44.550          47.100
C19  23997117.365    23997107.653                        2656.297        2158.403                   124959313.46208 101539654.90507                        49.550          46.200
C20  21963683.716    21963670.921                         -30.652         -24.975                   114370705.93408  92935532.77807                        52.550          47.400
C23  23610239.452                                       -2294.776                                   122944757.30808                                        51.600
E01  28066072.615    28066073.707    28066073.465    28066073.464       -2818.562       -2104.733       -2159.648       -2132.323   147488239.24347 110137347.63206 113010489.87907 111573920.93907        47.300          41.650          43.300          45.400
E03  27245128.735    27245131.487    27245130.388    27245130.697        2624.908        1960.123        2011.185        1985.691   143174137.85747 106915766.77107 109704865.44307 108310316.77707        46.400          44.450          45.600          47.850
E04  28655052.197    28655054.436    28655052.768    28655053.480       -2736.427       -2043.158       -2096.173       -2069.678   150583371.59846 112448651.06205 115382091.68505 113915373.55506        37.100          35.750          34.800          38.250
E05  23677420.417    23677422.296    23677421.473    23677421.914         963.613         719.597         738.379         728.976   124425727.58348  92915345.24708  95339220.64209  94127284.61909        53.350          53.700          55.100          57.300
E09  22372509.765    22372512.231    22372511.067    22372511.538       -1581.663       -1181.132       -1211.962       -1196.535   117568385.95548  87794612.02008  90084897.67308  88939754.02109        53.100          52.450          53.350          55.800
E15  27474738.844    27474741.724    27474740.562    27474741.019       -1169.222        -873.268        -895.941        -884.546   144380736.92347 107816804.19207 110629409.26607 109223107.90007        45.250          43.100          43.650          46.150
E24  22770962.917    22770975.180    22770974.546    22770974.967        2104.315        1571.375        1612.396        1591.881   119662222.71249  89358209.96108  91689286.63908  90523750.47509        54.000          52.000          53.250          55.600
E25  28323964.512    28323967.614    28323966.774    28323966.448        3260.944        2435.160        2498.730        2466.826   148843437.94047 111149332.35806 114048874.34207 112599105.03207        44.100          40.300          42.900          44.550
E31  24367958.718    24367961.549    24367960.871    24367961.210        -751.519        -561.175        -575.801        -568.493   128054515.64748  95625150.84708  98119711.31808  96872430.75709        51.850          51.600          53.100          55.250
G05  20796242.110    20796241.042    20796240.421                        -764.156        -595.447        -595.447                   109285015.45608  85157162.39008  85157179.38508                        51.150          50.850          51.150
G07  21805689.788    21805688.035    21805687.663                       -2054.377       -1600.814       -1600.814                   114589719.86908  89290707.77107  89290706.76308                        51.200          47.850          51.300
G08  24805835.278    24805837.960    24805836.999    24805836.230        1318.118        1027.109        1027.107         984.454   130355556.29306 101575766.58506 101575757.56906  97343435.59207        39.850          39.800          40.850          47.000
G09  24206934.789    24206936.621    24206936.253    24206936.403       -3246.863       -2530.024       -2530.024       -2424.521   127208355.58107  99123408.42707  99123406.42007  94993279.29307        43.400          43.300          43.600          47.500
G13  21675672.908                    21675670.652                        2435.747                        1897.986                   113906456.96408                  88758279.12807                        52.250                          45.550
G15  24120630.014    24120629.235    24120628.541                        3454.298        2691.661        2691.662                   126754776.18307  98769949.58906  98769955.59706                        46.350          41.550          40.200
G18  24642318.056    24642317.880    24642317.392    24642321.003        1044.416         813.831         813.829         779.823   129496262.52507 100906174.59607 100906177.59906  96701763.01307        43.300          42.850          40.000          44.950
G27  25063309.016    25063309.222    25063308.582    25063309.059        -168.913        -131.619        -131.620        -126.225   131708577.15807 102630064.77006 102630063.76107  98353810.67607        44.550          38.550          44.400          43.500
G28  22366659.600                    22366657.256                        2859.112                        2227.880                   117537593.46408                  91587735.84207                        49.850                          43.600
G30  20393250.653    20393251.982    20393251.242    20393250.663        -345.151        -268.948        -268.948        -257.683   107167291.27508  83506991.37008  83506994.36908  80027539.80209        51.850          52.700          51.800          56.350
I02  37432171.021         319.652   146891935.40607        42.300
I03  41395919.539         -44.768   162446495.90406        38.300
I04  41194514.290        -343.625   161656142.76506        36.650
I06  38260055.455          25.669   150140677.51806        41.150
R01  19139324.703    19139327.098    19139327.852                         -79.155         -61.564         -61.565                   102310704.12008  79575013.59007  79575013.59307                        49.550          45.300          44.650
R02  22147398.171    22147400.381    22147400.348                        3770.777        2932.825        2932.825                   118182773.58508  91919954.85907  91919950.85607                        50.150          43.700          43.850
R08  20934160.167    20934160.431    20934160.528                       -3026.078       -2353.617       -2353.617                   112101517.78808  87190085.47808  87190082.47508                        49.650          48.950          48.200
R09  23657715.425    23657715.244    23657715.497                       -4193.025       -3261.242       -3261.243                   126330929.19707  98257397.47207  98257409.47306                        47.750          43.000          41.850
R10  20527433.474                                                       -2852.641                                                   109422800.87508                                                        52.300
R11  19524666.071    19524667.226    19524667.266                        1685.760        1311.147        1311.148                   104333903.01608  81148599.08808  81148604.08508                        53.100          50.350          49.800
R12  22726426.909    22726428.609    22726428.448                        4213.309        3277.016        3277.017                   121400512.35808  94422615.51407  94422616.51607                        50.950          43.050          42.700
R17  24131852.216    24131853.192    24131853.938                       -3065.532       -2384.302       -2384.301                   129134415.16707 100437876.02806 100437879.03706                        44.750          39.300          38.200
R18  23456642.367    23456644.493    23456645.095                        -504.095        -392.073        -392.073                   125213158.04107  97388025.49907  97388025.50206                        47.100          42.350          41.000
R19  24280023.201    24280023.743    24280023.619                        2412.344        1876.269        1876.268                   129881752.08306 101019142.27506 101019141.26906                        36.550          37.350          37.100
S23  38542590.914           3.690   202543096.49608        48.950
S36  38339054.185           -.522   201474438.44608        48.000
> 2020 06 25 00 07 30.0000000  0 41
C05  39932510.226    39932503.877    39932504.767           -.740           -.716           -.616   207939061.91807 168967505.06706 160791651.06106        42.250          41.150          38.300
C07  39681036.881    39681024.829    39681030.697        -620.171        -503.891        -479.570   206629600.52707 167903441.49306 159779108.67407        44.300          40.700          42.300
C10  38200011.042    38200002.371    38200008.467          28.934          23.313          22.323   198917518.19307 161636752.73307 153815656.50907        45.550          44.850          47.000
C19  23981836.635    23981826.552                        2648.765        2152.237                   124879742.04408 101474996.61607                        49.800          45.950
C20  21963904.494    21963891.733                         -45.904         -37.235                   114371855.82008  92936467.14307                        52.650          47.550
C23  23623486.668                                       -2303.987                                   123013739.61208                                        51.750
E01  28082177.343    28082178.425    28082177.842    28082178.057       -2823.365       -2108.495       -2163.373       -2135.926   147572869.68447 110200545.69907 113075336.58907 111637943.31407        47.100          42.750          42.700          45.900
E03  27230147.757    27230149.978    27230149.651    27230149.584        2623.476        1958.944        2010.230        1984.663   143095412.29747 106856978.21807 109644543.26507 108250761.40908        47.050          43.000          46.650          48.300
E04  28670677.160    28670679.258    28670677.680    28670678.324       -2738.076       -2044.465       -2097.988       -2071.422   150665425.16446 112509966.65205 115444938.85105 113977488.94106        37.050          34.200          33.750          37.150
E05  23671942.713    23671944.722    23671944.088    23671944.380         955.333         713.414         732.004         722.731   124396943.02948  92893850.28709  95317164.94409  94105509.28609        53.300          54.100          55.000          57.800
E09  22381562.896    22381565.410    22381564.293    22381564.717       -1589.931       -1187.289       -1218.248       -1202.771   117615960.66548  87830138.58608  90121351.01808  88975743.97509        53.900          52.800          53.400          56.350
E15  27481452.750    27481456.230    27481455.136    27481455.456       -1182.536        -883.223        -906.313        -894.715   144416020.56547 107843152.35807 110656444.79607 109249799.74707        43.950          43.450          43.750          46.800
E24  22758981.831    22758994.485    22758993.331    22758993.995        2093.195        1563.067        1603.817        1583.423   119599262.37048  89311194.14508  91641044.31508  90476121.40509        53.200          52.600          52.750          55.950
E25  28305351.448    28305354.317    28305353.767    28305353.493        3260.172        2434.443        2497.998        2466.245   148745625.35047 111076290.54907 113973927.10507 112525110.49907        45.350          42.200          43.550          46.050
E31  24372288.210    24372291.010    24372290.383    24372290.664        -765.240        -571.416        -586.333        -578.887   128077267.18548  95642140.63908  98137144.31908  96889642.15309        51.550          52.000          53.100          55.800
G05  20800661.888    20800660.864    20800660.226                        -784.101        -610.988        -610.988                   109308241.85908  85175260.88308  85175277.87808                        51.550          50.550          51.650
G07  21817444.754    21817443.006    21817442.612                       -2063.711       -1608.087       -1608.087                   114651492.65708  89338842.44207  89338841.43408                        51.400          47.550          51.550
G08  24798356.027    24798358.275    24798357.175    24798356.598        1302.162        1014.671        1014.671         972.279   130316252.08707 101545139.89507 101545130.89507  97314085.08907        42.700          42.550          43.150          46.200
G09  24225481.716    24225483.748    24225483.351    24225483.503       -3250.672       -2532.991       -2532.992       -2427.642   127305820.92607  99199355.43007  99199353.42807  95066061.84908        43.650          43.600          43.400          48.100
G13  21661790.907                    21661788.633                        2427.740                        1891.746                   113833506.00208                  88701434.23107                        52.550                          45.100
G15  24100918.741    24100918.080    24100917.517                        3451.258        2689.295        2689.294                   126651193.31307  98689235.70506  98689241.70406                        45.400          41.300          40.950
G18  24636409.155    24636409.155    24636408.766    24636412.402        1025.946         799.442         799.442         766.088   129465211.90907 100881979.35807 100881982.36406  96678575.89907        44.150          43.350          39.950          45.850
G27  25064329.508    25064329.954    25064329.442    25064329.501        -188.562        -146.930        -146.930        -140.747   131713940.74007 102634244.19706 102634243.19507  98357815.95807        43.700          39.400          43.800          43.650
G28  22350369.782                    22350367.859                        2847.831                        2219.089                   117451991.18708                  91521032.80807                        49.800                          42.550
G30  20395263.223    20395264.584    20395263.836    20395263.319        -359.884        -280.428        -280.428        -268.784   107177867.70608  83515232.75208  83515235.75008  80035437.79109        52.150          52.750          52.200          56.850
I02  37429734.333         317.770   146882373.56607        42.600
I03  41396262.423         -44.832   162447841.92906        38.500
I04  41197145.836        -345.082   161666469.41906        36.750
I06  38259860.738          25.207   150139913.35206        41.600
R01  19139829.813    19139832.152    19139832.896                        -100.799         -78.399         -78.400                   102313404.06508  79577113.54107  79577113.54307                        48.800          45.400          44.550
R02  22126214.437    22126216.369    22126216.345                        3765.523        2928.741        2928.741                   118069731.19508  91832033.04607  91832029.04007                        52.100          44.800          44.550
R08  20951155.008    20951155.371    20951155.423                       -3040.793       -2365.061       -2365.061                   112192523.98608  87260868.07108  87260865.06807                        49.350          48.600          47.900
R09  23681281.282    23681281.258    23681281.334                       -4196.241       -3263.746       -3263.746                   126456768.50707  98355272.46407  98355284.46607                        46.850          43.650          42.400
R10  20543535.027                                                       -2869.250                                                   109508630.99308                                                        51.550
R11  19515267.082    19515268.115    19515268.121                        1662.779        1293.273        1293.274                   104283677.31408  81109534.65608  81109539.65208                        53.000          50.150          49.700
R12  22702787.185    22702788.730    22702788.607                        4205.397        3270.865        3270.865                   121274232.52208  94324397.88207  94324398.87407                        49.700          44.250          43.700
R17  24149077.262    24149078.174    24149078.794                       -3079.177       -2394.916       -2394.915                   129226589.20107 100509566.86606 100509569.86806                        43.450          39.050          38.300
R18  23459548.401    23459550.415    23459550.702                        -529.850        -412.106        -412.106                   125228670.08107  97400090.39606  97400090.40206                        44.850          41.350          40.800
R19  24266550.051    24266550.654    24266550.272                        2392.487        1860.820        1860.818                   129809680.08005 100963086.24406 100963085.22806                        35.500          36.750          36.250
S23  38542570.598           3.403   202542992.28008        49.150
S36  38339057.339           -.515   201474455.52508        48.250
> 2020 06 25 00 08 00.0000000  0 41
C05  39932514.108    39932507.685    39932508.625           -.545           -.515           -.417   207939082.04707 168967521.42406 160791666.62306        42.100          41.500          38.500
C07  39684618.735    39684606.704    39684612.653        -623.230        -506.584        -481.992   206648252.27807 167918597.57706 159793531.39507        43.850          40.600          42.900
C10  38199857.613    38199849.098    38199855.130          24.357          19.804          18.910   198916720.04707 161636104.16007 153815039.33207        45.100          44.950          47.150
C19  23966598.414    23966588.174                        2641.414        2146.222                   124800392.38408 101410518.52607                        49.150          46.250
C20  21964211.942    21964199.144                         -60.728         -49.490                   114373456.69108  92937767.99807                        52.550          47.700
C23  23636785.757                                       -2312.756                                   123082991.15908                                        51.850
E01  28098308.734    28098310.175    28098309.041    28098309.660       -2827.972       -2111.783       -2166.846       -2139.349   147657640.77647 110263848.76607 113140291.07207 111702072.09407        46.600          43.250          42.550          45.600
E03  27215173.348    27215175.415    27215175.636    27215175.895        2622.511        1958.349        2009.476        1983.910   143016722.54147 106798216.40007 109584248.57407 108191233.15808        46.550          43.650          46.950          48.350
E04                                                  28686313.817                                                       -2072.452                                                   114039646.41405                                                        33.200
E05  23666511.638    23666513.769    23666513.235    23666513.448         947.278         707.353         725.817         716.579   124368403.37748  92872538.20109  95295296.88609  94083919.21709        53.050          54.200          55.300          57.600
E09  22390662.093    22390664.465    22390663.483    22390663.801       -1597.840       -1193.161       -1224.315       -1208.740   117663776.79548  87865845.42508  90157989.33808  89011916.55509        53.950          52.850          53.650          56.000
E15  27488242.104    27488245.628    27488244.405    27488244.912       -1195.817        -892.898        -916.274        -904.557   144451699.18247 107869795.47107 110683782.95307 109276790.38207        45.550          43.650          44.000          46.650
E24  22747063.620    22747076.434    22747075.091    22747075.814        2082.218        1554.915        1595.438        1575.188   119536632.53048  89264425.12308  91593055.22808  90428742.34809        53.900          52.400          53.500          55.750
E25  28286742.384    28286745.048    28286744.539    28286744.263        3259.440        2433.947        2497.439        2465.801   148647833.91547 111003264.50006 113898996.00407 112451131.91707        45.550          41.200          43.050          45.000
E31  24376694.963    24376697.611    24376697.035    24376697.278        -778.604        -581.439        -596.596        -589.018   128100424.16048  95659433.19008  98154887.97908  96907160.25809        52.200          52.000          53.300          55.550
G05  20805194.870    20805193.781    20805193.105                        -803.847        -626.374        -626.374                   109332062.60408  85193822.51108  85193839.50108                        51.150          50.700          51.100
G07  21829251.157    21829249.486    21829249.065                       -2072.613       -1615.023       -1615.023                   114713536.01108  89387187.91107  89387186.90708                        51.250          47.800          51.150
G08  24790968.382    24790970.982    24790970.144    24790968.273        1286.070        1002.133        1002.133         960.395   130277428.77506 101514888.00607 101514879.00806  97285093.63807        40.850          43.800          41.300          46.850
G09  24244051.363    24244053.369    24244052.953    24244053.339       -3254.684       -2536.118       -2536.118       -2430.431   127403404.99207  99275394.95107  99275392.95507  95138933.03608        44.350          43.750          44.400          48.200
G13  21647953.787                    21647951.604                        2419.976                        1885.695                   113760791.91408                  88644773.90307                        52.400                          45.050
G15  24081223.729    24081223.090    24081222.444                        3448.336        2687.017        2687.017                   126547695.75907  98608588.28206  98608594.28206                        44.300          41.300          41.350
G18  24630604.738    24630604.510    24630604.035    24630607.593        1007.772         785.277         785.275         752.511   129434708.55507 100858210.57207 100858213.55606  96655797.48007        43.300          43.500          40.650          45.850
G27  25065461.223    25065461.962    25065461.496    25065461.282        -207.782        -161.908        -161.908        -155.207   131719888.60707 102638878.88506 102638877.88607  98362257.53107        43.350          40.150          43.550          43.750
G28  22334142.861                    22334140.609                        2837.065                        2210.701                   117366718.28008                  91454586.39307                        50.100                          42.250
G30  20397359.609    20397361.054    20397360.330    20397359.835        -374.461        -291.788        -291.788        -279.722   107188884.62808  83523817.37508  83523820.37408  80043664.73009        52.000          52.750          52.050          56.850
I02  37427309.351         316.624   146872857.99907        42.550
I03  41396605.072         -44.837   162449186.35706        38.650
I04  41199785.594        -345.738   161676828.36606        36.550
I06  38259666.906          25.265   150139152.49506        41.650
R01  19140455.814    19140458.175    19140458.945                        -122.240         -95.075         -95.075                   102316750.48208  79579716.31807  79579716.31907                        48.900          45.550          44.850
R02  22105059.520    22105061.157    22105061.070                        3760.479        2924.819        2924.818                   117956842.20408  91744230.52307  91744226.51807                        52.400          45.700          45.200
R08  20968231.214    20968231.744    20968231.812                       -3055.221       -2376.283       -2376.283                   112283966.72008  87331990.16708  87331987.17008                        49.150          48.950          48.350
R09  23704863.747    23704863.961    23704863.900                       -4199.074       -3265.949       -3265.949                   126582698.24107  98453217.73907  98453229.73506                        46.400          42.500          41.550
R10  20559728.980                                                       -2885.541                                                   109594954.07708                                                        50.700
R11  19505996.387    19505997.310    19505997.357                        1639.955        1275.520        1275.521                   104234137.25908  81071003.50108  81071008.50208                        53.050          50.600          50.050
R12  22679191.416    22679193.292    22679193.175                        4197.587        3264.791        3264.791                   121148188.30008  94226363.51907  94226364.51907                        48.900          44.850          44.000
R17  24166377.934    24166379.088    24166379.475                       -3092.625       -2405.377       -2405.377                   129319169.55307 100581573.79306 100581576.79106                        42.300          40.300          39.550
R18  23462597.711    23462600.352    23462600.188                        -555.296        -431.895        -431.895                   125244949.09007  97412751.83906  97412751.83506                        44.650          41.950          41.650
R19  24253187.006    24253187.645    24253187.281                        2372.827        1845.537        1845.535                   129738198.13405 100907489.18006 100907488.17506                        34.700          37.300          37.050
S23  38542549.791           3.614   202542887.47408        49.100
S36  38339062.388           -.780   201474482.28108        48.100
> 2020 06 25 00 08 30.0000000  0 40
C05  39932517.235    39932510.949    39932511.982           -.658           -.451           -.563   207939099.19406 168967535.35406 160791679.90106        41.850          41.500          38.900
C07  39688220.251    39688208.019    39688214.225        -626.681        -509.373        -484.695   206667006.48907 167933836.91306 159808033.34207        44.150          40.800          42.650
C10  38199729.833    38199721.467    38199727.428          20.065          16.146          15.364   198916055.33307 161635564.04607 153814525.34807        45.000          44.950          47.150
C19  23951402.832    23951393.032                        2633.710        2140.168                   124721266.41708 101346222.21407                        48.600          46.750
C20  21964606.175    21964593.232                         -75.927         -61.705                   114375509.14808  92939435.78107                        52.650          47.750
C23  23650136.320                                       -2321.689                                   123152510.22808                                        51.850
E01  28114466.447    28114468.206    28114466.821    28114467.826       -2832.664       -2115.305       -2170.458       -2142.880   147742550.84047 110327255.58807 113205352.02507 111766305.97807        46.500          42.700          43.150          46.050
E03  27200205.875    27200208.168    27200208.440    27200208.934        2621.262        1957.348        2008.379        1982.877   142938069.46047 106739481.99007 109523981.98607 108131732.66108        46.600          44.150          47.050          48.900
E05  23661127.505    23661129.644    23661129.084    23661129.285         938.988         701.152         719.445         710.319   124340109.50448  92851409.65608  95273617.16109  94062515.08209        53.650          53.900          55.350          57.750
E09  22399807.469    22399809.491    22399808.478    22399808.833       -1605.936       -1199.211       -1230.578       -1214.893   117711834.21849  87901732.45808  90194812.56308  89048271.68309        55.200          52.500          53.700          56.150
E15  27495106.689    27495110.131    27495108.924    27495109.364       -1208.858        -902.809        -926.403        -914.608   144487771.54547 107896732.62307 110711422.81707 109304078.89107        46.800          43.400          44.350          46.900
E24  22735208.866    22735221.349    22735220.436    22735220.935        2071.070        1546.524        1586.900        1566.716   119474334.32149  89217903.73208  91545320.24608  90381614.16309        54.300          52.150          53.600          55.950
E25  28268137.566    28268139.829    28268139.698    28268139.505        3258.780        2433.442        2496.716        2465.054   148550064.96347 110930255.21906 113824082.16307 112377170.36607        44.900          40.700          43.200          45.050
E31  24381178.739    24381181.199    24381180.646    24381180.860        -792.166        -591.591        -606.980        -599.262   128123985.66048  95677027.81808  98172941.59108  96924984.37809        52.350          51.650          53.400          55.650
G05  20809840.827    20809839.709    20809839.069                        -823.717        -641.858        -641.858                   109356477.22308  85212846.87508  85212863.86908                        51.850          50.500          51.750
G07  21841108.781    21841107.153    21841106.787                       -2081.534       -1621.975       -1621.975                   114775848.47608  89435743.06907  89435742.06508                        52.150          47.600          52.250
G08  24783672.247    24783675.257    24783674.474    24783672.791        1269.435         989.169         989.169         948.324   130239087.97507 101485012.10307 101485003.10107  97256462.53107        42.550          42.200          42.350          47.750
G09  24262643.486    24262645.436    24262644.965    24262645.299       -3258.777       -2539.305       -2539.306       -2433.519   127501106.84007  99351526.28007  99351524.27307  95211892.21007        44.800          44.150          44.850          47.900
G13  21634161.996                    21634159.821                        2411.859                        1879.370                   113688316.08108                  88588299.22607                        52.150                          45.250
G15  24061545.126    24061544.367    24061543.733                        3445.635        2684.911        2684.911                   126444284.43307  98528008.08806  98528014.08006                        46.200          40.000          40.050
G18  24624904.585    24624904.361    24624903.908    24624907.402         989.425         770.983         770.983         738.737   129404753.45607 100834868.96307 100834871.96006  96633428.44907        45.050          43.400          39.550          45.750
G27  25066704.139    25066705.154    25066704.698    25066704.227        -227.343        -177.149        -177.149        -169.967   131726420.83407 102643968.92906 102643967.92207  98367135.50107        45.100          41.050          45.300          43.050
G28  22317979.274                    22317976.628                        2825.730                        2201.867                   117281777.31508                  91388398.60407                        49.950                          42.200
G30  20399539.736    20399541.201    20399540.515    20399540.057        -389.177        -303.255        -303.255        -290.637   107200341.26208  83532744.62808  83532747.62608  80052220.01209        52.300          52.800          52.350          56.600
I02  37424896.277         314.801   146863388.70107        42.300
I03  41396947.177         -44.473   162450529.15306        38.050
I04  41202433.381        -346.967   161687219.51506        36.300
I06  38259473.850          25.025   150138395.01806        41.350
R01  19141203.047    19141205.306    19141206.102                        -143.936        -111.949        -111.949                   102320744.32708  79582822.63907  79582822.64207                        49.650          45.800          45.000
R02  22083933.808    22083935.076    22083934.885                        3755.111        2920.642        2920.642                   117844109.46008  91656549.53207  91656545.53207                        52.650          45.100          44.900
R08  20985389.120    20985389.270    20985389.310                       -3069.856       -2387.665       -2387.665                   112375844.57708  87403450.72408  87403447.72408                        49.650          48.550          48.000
R09  23728462.792    23728462.823    23728462.694                       -4201.832       -3268.089       -3268.090                   126708715.56807  98551231.22306  98551243.21606                        47.500          41.300          40.500
R10  20576014.861                                                       -2901.810                                                   109681766.91808                                                        50.450
R11  19496854.276    19496855.066    19496855.083                        1617.054        1257.707        1257.707                   104185283.73808  81033006.32908  81033011.32308                        53.550          50.800          50.300
R12  22655640.218    22655642.360    22655642.296                        4189.567        3258.552        3258.552                   121022382.54508  94128514.61907  94128515.61007                        50.200          44.800          44.600
R17  24183753.208    24183755.034    24183755.410                       -3105.916       -2415.719       -2415.718                   129412152.21305 100653893.59206 100653896.60006                        35.700          40.000          39.400
R18  23465790.665    23465793.625    23465793.285                        -580.955        -451.856        -451.855                   125261994.32807  97426009.26406  97426009.25306                        46.300          41.100          41.050
R19  24239935.131    24239935.732    24239935.387                        2352.968        1830.086        1830.089                   129667310.11306 100852354.01806 100852353.03606                        38.100          36.550          36.250
S23  38542529.903           3.689   202542782.54108        49.250
S36  38339066.901           -.630   201474505.27008        48.400
> 2020 06 25 00 09 00.0000000  0 40
C05  39932519.946    39932513.653    39932514.661           -.519           -.366           -.480   207939113.33807 168967546.86806 160791690.86106        42.050          41.000          38.850
C07  39691841.425    39691829.183    39691835.340        -630.213        -512.227        -487.359   206685862.83707 167949159.24206 159822614.27907        44.300          39.900          42.950
C10  38199627.631    38199619.323    38199625.298          15.499          12.640          11.986   198915523.58807 161635131.95507 153814114.16407        45.200          44.550          47.500
C19  23936250.866    23936241.017                        2626.223        2134.003                   124642365.95008 101282109.14507                        49.200          45.850
C20  21965087.184    21965074.167                         -90.969         -73.893                   114378013.66408  92941470.90307                        52.400          47.400
C23  23663537.860                                       -2330.648                                   123222294.98508                                        52.050
E01  28130650.465    28130652.155    28130651.158    28130651.777       -2837.380       -2118.694       -2173.899       -2146.317   147827598.14347 110390764.91907 113270518.09907 111830643.68507        46.900          42.800          44.350          46.100
E03  27185245.909    27185248.394    27185248.207    27185248.920        2619.729        1956.345        2007.403        1981.809   142859453.84647 106680775.56507 109463744.07607 108072260.49808        47.850          45.550          46.050          48.450
E05  23655790.463    23655792.489    23655791.808    23655792.049         930.691         695.038         713.195         704.125   124312062.22848  92830465.26309  95252126.39009  94041297.50009        53.850          54.250          55.600          57.600
E09  22408998.806    22409000.401    22408999.439    22408999.760       -1613.989       -1205.206       -1236.670       -1220.926   117760132.76949  87937799.56108  90231820.54509  89084809.22509        54.750          52.850          54.050          56.050
E15  27502045.753    27502049.149    27502047.882    27502048.471       -1221.924        -912.507        -936.470        -924.491   144524236.38447 107923962.83507 110739363.41007 109331664.29707        46.400          44.200          45.350          47.350
E24  22723417.126    22723429.743    22723428.671    22723429.303        2059.884        1538.242        1578.423        1558.344   119412368.77848  89171630.77808  91497840.16208  90334737.64209        53.800          52.650          53.550          55.750
E25  28249537.315    28249539.200    28249539.462    28249539.291        3257.864        2432.743        2496.228        2464.515   148452320.10447 110857264.00306 113749186.81007 112303227.07707        45.650          41.500          43.600          45.200
E31  24385739.350    24385741.605    24385741.039    24385741.235        -805.505        -601.555        -617.252        -609.391   128147950.71548  95694923.80808  98191304.43608  96943113.79509        52.450          51.950          53.600          55.400
G05  20814599.798    20814598.632    20814597.991                        -843.528        -657.295        -657.295                   109381485.51308  85232333.85208  85232350.85108                        51.550          49.600          51.600
G07  21853017.420    21853015.757    21853015.392                       -2090.525       -1628.980       -1628.980                   114838428.50008  89484506.72607  89484505.72408                        52.050          46.800          52.000
G08  24776468.502    24776471.118    24776470.087    24776469.483        1253.405         976.681         976.681         936.242   130201232.01206 101455513.97306 101455504.95906  97228193.53207        41.400          40.750          41.000          47.550
G09  24281257.777    24281259.741    24281259.358    24281259.725       -3262.586       -2542.275       -2542.275       -2436.349   127598925.64007  99427748.68607  99427746.68407  95284938.68408        44.950          42.950          45.050          48.050
G13  21620415.776                    21620413.728                        2403.829                        1873.114                   113616079.75008                  88532011.20007                        52.350                          44.650
G15  24041883.401    24041882.401    24041881.838                        3442.774        2682.679        2682.679                   126340961.10507  98447496.39706  98447502.38906                        46.400          38.150          39.700
G18  24619308.900    24619308.462    24619308.138    24619311.500         970.988         756.616         756.616         725.185   129375347.43107 100811955.21407 100811958.20206  96611469.42207        43.900          42.900          37.850          45.700
G27  25068058.245    25068059.576    25068059.122    25068058.163        -246.883        -192.375        -192.375        -184.389   131733537.33807 102649514.26306 102649513.26107  98372449.78407        43.350          40.650          43.050          42.950
G28  22301879.125                    22301876.883                        2814.628                        2193.217                   117197170.74408                  91322471.42907                        50.100                          42.750
G30  20401803.418    20401804.871    20401804.189    20401803.786        -403.852        -314.690        -314.690        -301.520   107212236.75608  83542013.84708  83542016.84508  80061103.01209        52.450          51.900          52.400          56.900
I02  37422494.958         313.462   146853965.76307        42.650
I03  41397288.847         -44.673   162451870.34706        38.700
I04  41205089.354        -347.612   161697642.73306        36.950
I06  38259281.648          25.082   150137640.88506        41.800
R01  19142071.485    19142073.697    19142074.408                        -165.686        -128.867        -128.867                   102325386.46108  79586433.18507  79586433.18607                        49.250          45.100          44.150
R02  22062837.750    22062838.530    22062838.421                        3749.734        2916.461        2916.460                   117731535.04508  91568991.67707  91568987.67407                        52.700          44.700          44.350
R08  21002627.484    21002627.556    21002627.521                       -3084.294       -2398.896       -2398.896                   112468155.35908  87475248.01507  87475245.01307                        48.900          47.500          47.250
R09  23752077.632    23752077.611    23752077.573                       -4204.770       -3270.376       -3270.376                   126834817.47307  98649310.43906  98649322.45106                        46.900          41.700          40.900
R10  20592391.734                                                       -2918.019                                                   109769065.10508                                                        50.650
R11  19487840.693    19487841.500    19487841.519                        1594.006        1239.783        1239.783                   104137117.85608  80995543.98908  80995548.98708                        53.200          50.150          49.750
R12  22632134.401    22632136.471    22632136.393                        4181.362        3252.172        3252.171                   120896818.12108  94030853.39507  94030854.38607                        49.300          44.650          44.100
R17  24201203.717    24201205.404    24201205.734                       -3119.173       -2426.025       -2426.025                   129505532.69906 100726522.77206 100726525.77106                        41.850          41.250          40.650
R18  23469127.153    23469129.856    23469129.919                        -606.527        -471.742        -471.742                   125279804.17607  97439861.39707  97439861.37306                        44.950          42.800          40.800
R19  24226795.204    24226795.793    24226795.209                        2333.054        1814.598        1814.597                   129597019.44206 100797683.47206 100797682.47006                        38.800          38.650          37.850
S23  38542510.722           3.491   202542678.23508        49.150
S36  38339071.828           -.908   201474528.72608        48.350
> 2020 06 25 00 09 30.0000000  0 40
C05  39932522.104    39932515.818    39932516.804           -.488           -.350           -.183   207939124.49407 168967555.94806 160791699.47206        42.000          41.100          38.350
C07  39695482.072    39695469.568    39695476.047        -633.602        -515.001        -490.038   206704820.94407 167964564.26406 159837273.88607        43.700          40.000          42.900
C10  38199550.976    38199542.692    38199548.665          10.889           9.145           8.562   198915124.72307 161634807.84607 153813805.73707        45.050          44.450          47.250
C19  23921142.666    23921132.496                        2618.568        2127.811                   124563692.92108 101218180.86407                        49.000          45.800
C20  21965655.016    21965642.067                        -106.221         -86.261                   114380970.76708  92943873.78707                        52.550          47.500
C23  23676990.091                                       -2339.419                                   123292343.68208                                        51.600
E01  28146860.335    28146861.760    28146861.056    28146861.548       -2841.729       -2122.019       -2177.400       -2149.703   147912780.99647 110454375.49006 113335788.07407 111895083.95807        46.650          41.800          44.850          46.050
E03  27170293.528    27170296.158    27170295.265    27170295.682        2618.527        1955.373        2006.402        1980.937   142780876.55847 106622097.75407 109403535.48407 108012817.29008        47.700          46.050          45.450          48.600
E05  23650500.599    23650502.473    23650501.630    23650501.918         922.397         688.846         706.839         697.833   124284262.43248  92809705.67809  95230825.25109  94020267.13909        53.650          54.200          55.400          57.650
E09  22418235.642    22418237.239    22418236.252    22418236.536       -1622.068       -1211.248       -1242.854       -1227.024   117808672.36049  87974046.65008  90269013.20808  89121529.10109        54.100          52.750          53.850          56.050
E15  27509059.253    27509062.528    27509061.704    27509062.191       -1235.144        -922.183        -946.401        -934.319   144561092.49447 107951485.23507 110767603.80107 109359545.69407        45.500          44.100          45.200          47.500
E24  22711689.052    22711701.606    22711700.492    22711701.093        2048.704        1529.951        1569.813        1549.877   119350737.01449  89125607.05808  91450615.82808  90288113.61709        54.250          52.350          53.650          55.800
E25  28230941.918    28230943.793    28230944.011    28230943.989        3256.767        2431.945        2495.541        2463.686   148354600.59847 110784291.68506 113674310.86507 112229302.95307        45.650          41.800          43.550          45.600
E31  24390376.493    24390378.646    24390378.026    24390378.226        -819.001        -611.601        -627.541        -619.569   128172318.38448  95713120.44808  98209975.76508  96961547.78009        52.600          51.900          53.400          55.450
G05  20819471.657    20819470.410    20819469.768                        -863.395        -672.776        -672.776                   109407086.74708  85252282.85708  85252299.85008                        52.000          50.650          51.950
G07  21864976.755    21864975.014    21864974.665                       -2099.379       -1635.880       -1635.880                   114901274.82908  89533477.89207  89533476.88708                        51.600          47.950          51.400
G08  24769357.494    24769359.956    24769358.934    24769357.969        1237.351         964.169         964.169         924.052   130163862.86806 101426395.13607 101426386.13706  97200287.98607        41.600          42.700          41.750          46.600
G09  24299894.296    24299896.206    24299895.779    24299896.013       -3266.461       -2545.295       -2545.294       -2439.238   127696860.51007  99504061.54807  99504059.54607  95358071.83007        45.300          44.900          45.000          47.700
G13  21606715.614                    21606713.500                        2395.704                        1866.782                   113544084.20408                  88475910.78607                        52.800                          45.700
G15  24022238.364    24022237.548    24022236.913                        3439.577        2680.194        2680.194                   126237726.86007  98367054.15906  98367060.16806                        45.450          40.700          39.850
G18  24613817.605    24613817.320    24613816.881    24613820.238         952.771         742.421         742.419         711.445   129346491.37707 100789469.98007 100789472.98106  96589921.10307        43.100          43.600          39.050          45.850
G27  25069523.708    25069525.151    25069524.576    25069523.405        -266.406        -207.591        -207.591        -199.030   131741238.18507 102655514.91106 102655513.91107  98378200.40907        43.750          41.600          43.450          42.650
G28  22285842.935                    22285841.221                        2803.187                        2184.304                   117112901.33008                  91256806.97507                        48.350                          44.150
G30  20404150.403    20404151.854    20404151.179    20404150.801        -418.546        -326.139        -326.140        -312.471   107224570.24608  83551624.37008  83551627.36908  80070313.09009        52.150          52.800          52.150          56.750
I02  37420105.548         311.719   146844589.21107        42.500
I03  41397630.103         -44.634   162453209.85806        38.600
I04  41207753.344        -349.150   161708097.96906        36.800
I06  38259090.269          24.855   150136890.11606        41.450
R01  19143061.135    19143063.553    19143064.299                        -187.224        -145.619        -145.619                   102330678.05808  79590548.85507  79590548.85607                        49.000          45.400          44.550
R02  22041771.912    22041772.412    22041772.275                        3744.342        2912.266        2912.265                   117619122.63708  91481559.82707  91481555.83307                        52.350          44.800          44.500
R08  21019946.183    21019946.374    21019946.313                       -3098.686       -2410.088       -2410.088                   112560897.70308  87547380.94107  87547377.93907                        48.850          47.650          47.300
R09  23775707.485    23775707.949    23775707.957                       -4207.566       -3272.554       -3272.555                   126961000.86807  98747453.02207  98747465.01807                        45.700          44.250          43.200
R10  20608859.000                                                       -2934.089                                                   109856845.22708                                                        50.100
R11  19478955.813    19478956.849    19478956.901                        1570.960        1221.858        1221.858                   104089640.57708  80958617.22908  80958622.22408                        52.800          50.650          50.150
R12  22608673.972    22608676.142    22608676.153                        4173.136        3245.773        3245.774                   120771497.88708  93933382.13207  93933383.12807                        49.800          44.650          43.550
R17  24218727.502    24218729.103    24218729.441                       -3132.309       -2436.243       -2436.242                   129599306.28707 100799457.71506 100799460.71306                        43.650          41.000          39.900
R18  23472606.788    23472609.129    23472609.805                        -631.925        -491.503        -491.501                   125298377.85807  97454307.50807  97454307.50906                        46.700          42.400          40.850
R19  24213767.639    24213768.104    24213767.768                        2313.027        1799.021        1799.020                   129527329.14506 100743479.85906 100743478.84906                        38.550          39.400          38.600
S23  38542491.179           3.367   202542573.69308        49.050
S36  38339076.755           -.768   201474551.25608        48.350
> 2020 06 25 00 10 00.0000000  0 40
C05  39932523.625    39932517.366    39932518.351           -.208           -.216           -.236   207939132.67707 168967562.59006 160791705.82506        42.050          41.300          38.600
C07  39699142.173    39699129.785    39699136.174        -637.057        -517.515        -492.499   206723880.41607 167980051.63706 159852011.87307        43.750          40.250          42.850
C10  38199499.888    38199491.525    38199497.576           6.556           5.421           5.181   198914858.49707 161634591.51207 153813599.87207        44.850          44.600          47.300
C19  23906078.244    23906068.363                        2610.870        2121.633                   124485249.14908 101154438.89407                        48.550          46.650
C20  21966309.936    21966297.085                        -121.287         -98.508                   114384380.94108  92946644.83707                        52.450          47.800
C23  23690492.624                                       -2348.204                                   123362654.54508                                        52.100
E01  28163095.667    28163096.866    28163096.427    28163096.444       -2846.239       -2125.386       -2180.842       -2153.109   147998097.83347 110518086.12207 113401160.70507 111959625.58407        46.950          42.050          44.150          45.900
E03  27155348.245    27155350.881    27155349.696    27155349.782        2617.279        1954.343        2005.488        1979.887   142702338.36047 106563449.16107 109343356.87407 107953403.69208        47.000          44.000          46.650          48.000
E05  23645257.918    23645259.746    23645258.734    23645259.059         914.219         682.695         700.497         691.557   124256711.03148  92789131.57908  95209714.43909  93999424.68509        53.650          53.800          55.300          57.300
E09  22427518.283    22427519.906    22427518.899    22427519.178       -1630.074       -1217.249       -1249.017       -1233.141   117857452.83149  88010473.62708  90306390.45608  89158431.21509        54.150          52.250          53.750          55.750
E15  27516147.032    27516149.910    27516149.396    27516150.020       -1248.004        -932.063        -956.236        -944.098   144598338.56247 107979298.87307 110796142.99607 109387722.10907        46.400          43.200          45.900          47.300
E24  22700024.707    22700036.995    22700036.206    22700036.755        2037.583        1521.610        1561.322        1541.447   119289440.11449  89079833.40508  91403648.07708  90241742.91509        54.100          52.000          53.500          55.550
E25  28212351.611    28212353.950    28212353.582    28212353.635        3255.790        2431.360        2494.843        2463.145   148256907.97347 110711339.45307 113599455.51107 112155399.15707        45.900          42.200          42.400          45.000
E31  24395089.967    24395092.125    24395091.461    24395091.651        -832.439        -621.540        -637.744        -629.641   128197087.72948  95731617.02808  98228954.86508  96980285.62209        52.250          51.600          53.250          55.200
G05  20824456.090    20824454.731    20824454.098                        -883.033        -688.078        -688.078                   109433279.57708  85272692.84708  85272709.84308                        51.850          50.300          51.800
G07  21876986.276    21876984.614    21876984.339                       -2108.151       -1642.715       -1642.715                   114964385.76708  89582655.24507  89582654.24008                        51.700          47.800          51.800
G08  24762339.041    24762341.902    24762340.985    24762339.671        1221.161         951.555         951.555         911.951   130126982.44807 101397657.18907 101397648.18507  97172747.45707        42.200          43.100          42.200          45.700
G09  24318552.749    24318554.564    24318554.185    24318554.407       -3270.409       -2548.371       -2548.371       -2442.151   127794910.55907  99580464.16207  99580462.15707  95431290.99407        45.900          44.550          46.000          46.800
G13  21593061.421                    21593059.280                        2387.632                        1860.493                   113472330.69308                  88419998.96607                        52.450                          45.700
G15  24002610.912    24002610.164    24002609.517                        3436.478        2677.775        2677.776                   126134583.57007  98286682.77006  98286688.78306                        46.250          41.350          41.000
G18  24608430.885    24608431.061    24608430.699    24608434.121         934.381         728.091         728.090         697.641   129318186.14607 100767413.99907 100767417.00906  96568784.14907        43.450          43.350          40.800          45.650
G27  25071100.314    25071101.927    25071101.584    25071099.936        -285.940        -222.810        -222.811        -213.386   131749523.33707 102661970.87507 102661969.87107  98384387.34507        43.600          42.200          44.250          42.300
G28  22269871.543                    22269869.488                        2791.800                        2175.427                   117028971.57908                  91191407.17907                        50.650                          42.100
G30  20406580.549    20406581.987    20406581.312    20406580.917        -433.034        -337.429        -337.429        -323.333   107237340.87308  83561575.51108  83561578.51008  80079849.60409        52.250          52.800          52.300          56.300
I02  37417727.940         310.285   146835258.95307        42.000
I03  41397970.914         -44.483   162454547.71406        37.800
I04  41210425.532        -350.029   161718585.05905        35.300
I06  38258899.817          24.819   150136142.73506        41.050
R01  19144172.860    19144175.078    19144175.810                        -208.985        -162.544        -162.544                   102336619.74508  79595170.15707  79595170.16407                        49.750          45.400          44.650
R02  22020736.634    22020737.183    22020737.089                        3738.739        2907.909        2907.909                   117506874.63608  91394255.87607  91394251.87307                        52.150          45.400          45.350
R08  21037345.455    21037345.790    21037345.677                       -3112.983       -2421.210       -2421.210                   112654070.39708  87619848.57308  87619845.56807                        49.400          48.250          47.800
R09  23799352.307    23799352.923    23799353.014                       -4210.114       -3274.534       -3274.533                   127087262.68907  98845656.59107  98845668.59307                        46.500          43.750          42.700
R10  20625416.067                                                       -2949.956                                                   109945103.77708                                                        50.400
R11  19470199.888    19470201.214    19470201.230                        1548.057        1204.045        1204.045                   104042852.91108  80922226.84308  80922231.83508                        52.800          50.750          50.300
R12  22585260.015    22585262.179    22585262.291                        4164.868        3239.343        3239.344                   120646424.70708  93836102.97407  93836103.97707                        50.100          45.550          44.800
R17  24236323.682    24236325.807    24236326.062                       -3145.308       -2446.350       -2446.350                   129693469.11707 100872695.49906 100872698.49706                        42.950          40.750          39.650
R18  23476229.233    23476231.324    23476232.043                        -657.352        -511.272        -511.272                   125317714.00007  97469346.75307  97469346.75306                        47.750          42.750          41.550
R19  24200852.706    24200853.627    24200853.236                        2292.722        1783.225        1783.226                   129458243.14706 100689746.26706 100689745.26706                        38.400          40.300          39.600
S23  38542471.307           3.712   202542468.61608        49.250
S36  38339081.294           -.677   201474570.38008        48.550
> 2020 06 25 00 10 30.0000000  0 40
C05  39932524.582    39932518.337    39932519.291           0.152           -.145           -.105   207939137.81507 168967566.79606 160791709.82206        42.050          41.500          38.900
C07  39702821.762    39702809.374    39702815.648        -640.645        -520.369        -495.125   206743040.95707 167995621.13506 159866828.00307        43.800          40.550          43.100
C10  38199474.210    38199465.800    38199471.924           2.359           1.855           1.728   198914724.71907 161634482.81507 153813496.44007        44.850          44.750          47.400
C19  23891058.273    23891048.483                        2603.229        2115.337                   124407036.54908 101090884.77007                        49.050          46.300
C20  21967051.914    21967039.199                        -136.307        -110.786                   114388244.72308  92949784.47507                        52.350          47.900
C23  23704045.082                                       -2356.621                                   123433225.77108                                        52.200
E01  28179355.964    28179357.363    28179356.804    28179356.721       -2850.486       -2128.527       -2184.145       -2156.261   148083546.92647 110581895.49006 113466634.65307 112024267.23807        45.850          41.900          43.000          45.700
E03  27140410.330    27140412.624    27140412.132    27140412.115        2615.917        1953.456        2004.482        1978.984   142623840.11747 106504830.34707 109283208.90307 107894020.30008        45.950          42.550          47.600          48.700
E05  23640062.510    23640064.421    23640063.232    23640063.635         906.013         676.531         694.174         685.351   124229408.87348  92768743.60808  95188794.60809  93978770.78209        53.200          53.650          55.350          57.850
E09  22436846.517    22436848.277    22436847.394    22436847.617       -1638.032       -1223.246       -1255.096       -1239.167   117906474.05548  88047080.37908  90343952.16308  89195515.44509        52.950          51.900          53.850          56.200
E15  27523308.719    27523311.585    27523311.230    27523311.594       -1261.060        -941.524        -966.214        -953.898   144635973.36447 108007402.75307 110824980.03707 109416192.57007        44.950          42.700          45.900          47.750
E24  22688424.225    22688436.593    22688435.546    22688436.256        2026.474        1513.230        1552.699        1532.984   119228479.13048  89034310.60408  91356937.72508  90195626.33809        53.950          51.950          53.350          56.000
E25  28193766.696    28193769.575    28193768.428    28193768.568        3255.101        2430.650        2494.199        2462.415   148159243.56747 110638408.30006 113524621.79906 112081516.72007        45.750          41.750          41.850          45.250
E31  24399879.544    24399881.835    24399881.160    24399881.332        -845.631        -631.485        -647.982        -639.731   128222257.73348  95750412.82408  98248240.98408  96999326.57809        51.900          51.350          53.250          55.700
G05  20829552.948    20829551.557    20829550.877                        -902.564        -703.295        -703.296                   109460063.64008  85293563.55008  85293580.54208                        51.650          50.150          51.650
G07  21889045.859    21889044.326    21889044.085                       -2116.906       -1649.537       -1649.537                   115027759.86908  89632037.65907  89632036.65408                        51.650          47.650          51.700
G08  24755414.604    24755417.161    24755416.286    24755414.743        1204.986         938.949         938.950         899.726   130090592.62707 101369301.50107 101369292.50607  97145573.25507        42.850          42.100          43.150          45.850
G09  24337232.922    24337234.598    24337234.321    24337234.414       -3273.999       -2551.168       -2551.168       -2444.893   127893074.90207  99656955.83707  99656953.84107  95504595.53207        45.900          44.250          46.200          46.600
G13  21579453.325                    21579451.296                        2379.701                        1854.314                   113400820.41808                  88364276.68707                        51.550                          45.900
G15  23983000.845    23983000.366    23982999.912                        3433.553        2675.497        2675.497                   126031532.68507  98206383.44506  98206389.44406                        45.900          40.750          40.900
G18  24603149.598    24603149.636    24603149.317    24603152.869         915.990         713.760         713.759         683.913   129290432.60807 100745787.94707 100745790.93606  96548059.15707        44.150          43.950          38.850          45.350
G27  25072788.061    25072789.835    25072789.364    25072787.690        -305.288        -237.888        -237.887        -228.113   131758392.72007 102668882.06506 102668881.05907  98391010.61207        43.900          41.950          43.850          42.000
G28  22253965.787                    22253963.053                        2780.662                        2166.749                   116945383.96008                  91126273.93607                        50.750                          43.250
G30  20409093.689    20409095.131    20409094.451    20409093.998        -447.534        -348.727        -348.727        -334.144   107250547.74408  83571866.58108  83571869.58108  80089711.88009        51.800          52.600          51.800          56.050
I02  37415362.138         308.831   146825975.03507        42.050
I03  41398311.467         -44.529   162455883.95806        37.900
I04  41213106.035        -351.058   161729103.84605        34.950
I06  38258710.241          24.789   150135398.72606        40.900
R01  19145406.481    19145408.423    19145409.158                        -230.703        -179.435        -179.435                   102343212.73508  79600298.04507  79600298.05207                        49.650          45.650          44.750
R02  21999732.725    21999733.501    21999733.399                        3733.183        2903.589        2903.589                   117394794.27308  91307082.29607  91307078.29007                        52.000          45.700          45.550
R08  21054824.910    21054825.087    21054824.999                       -3127.080       -2432.173       -2432.173                   112747671.19508  87692649.18807  87692646.19107                        49.450          47.800          47.500
R09  23823011.457    23823011.693    23823011.929                       -4212.308       -3276.239       -3276.238                   127213599.82007  98943918.78307  98943930.80006                        46.700          42.200          41.000
R10  20642062.103                                                       -2965.663                                                   110033836.75808                                                        50.300
R11  19461573.413    19461574.741    19461574.693                        1525.100        1186.189        1186.189                   103996755.84708  80886373.57008  80886378.56608                        52.800          50.600          50.250
R12  22561893.194    22561895.114    22561895.147                        4156.650        3232.951        3232.951                   120521601.24408  93739018.07207  93739019.07007                        50.500          44.950          44.450
R17  24253992.446    24253994.416    24253994.601                       -3158.041       -2456.254       -2456.254                   129788017.08207 100946232.80906 100946235.81606                        43.150          38.350          37.350
R18  23479994.114    23479996.544    23479996.976                        -682.656        -530.954        -530.954                   125337811.78607  97484978.39307  97484978.39606                        46.850          42.050          41.400
R19  24188051.453    24188052.328    24188052.036                        2272.589        1767.572        1767.573                   129389764.55306 100636485.16706 100636484.17606                        38.000          39.600          39.700
S23  38542450.809           3.457   202542362.90308        49.000
S36  38339086.517           -.456   201474593.63508        48.350
> 2020 06 25 00 11 00.0000000  0 40
C05  39932525.037    39932518.714    39932519.762           -.143           0.147           0.112   207939140.01207 168967568.56706 160791711.50506        42.000          41.400          38.350
C07  39706520.576    39706508.288    39706514.562        -643.756        -523.017        -497.775   206762301.97107 168011272.28806 159881721.84007        43.000          40.350          42.750
C10  38199473.732    38199465.416    38199471.575          -1.996          -1.784          -1.634   198914722.89707 161634481.35007 153813495.04607        44.700          44.800          46.950
C19  23876082.768    23876073.197                        2595.508        2109.026                   124329056.95708 101027519.98407                        48.050          46.550
C20  21967881.069    21967868.334                        -151.426        -123.091                   114392562.51408  92953293.04407                        52.000          47.850
C23  23717647.185                                       -2365.353                                   123504055.61308                                        51.850
E01  28195641.074    28195642.840    28195641.735    28195642.210       -2854.950       -2131.814       -2187.427       -2159.680   148169126.71847 110645802.43207 113532208.76407 112089007.77107        46.150          42.650          42.800          46.350
E03  27125479.901    27125482.020    27125482.583    27125482.582        2614.559        1952.309        2003.408        1977.887   142545382.55547 106446241.95607 109223092.16007 107834667.73108        47.400          42.600          47.650          49.000
E05  23634914.537    23634916.634    23634915.308    23634915.822         897.546         670.287         687.746         679.002   124202356.83348  92748542.40608  95168066.42209  93958306.08809        53.200          53.350          55.000          57.850
E09  22446220.079    22446222.410    22446221.565    22446221.820       -1646.109       -1229.240       -1261.262       -1245.260   117955735.88548  88083866.78608  90381698.21508  89232781.67509        52.400          51.550          53.300          56.050
E15  27530543.956    27530546.915    27530546.671    27530546.936       -1273.965        -951.249        -976.077        -963.713   144673995.56947 108035795.93807 110854113.90207 109444956.09907        44.050          42.100          45.350          47.350
E24  22676887.830    22676900.325    22676899.120    22676899.834        2015.182        1504.874        1544.117        1524.482   119167855.10948  88989039.41908  91310485.54908  90149764.65809        53.700          51.700          53.200          56.100
E25  28175187.577    28175190.776    28175188.912    28175188.985        3253.856        2429.794        2493.366        2461.549   148061608.84747 110565499.31206 113449810.80306 112007656.73207        46.800          41.000          41.150          44.650
E31  24404745.110    24404747.607    24404746.880    24404747.072        -859.009        -641.407        -658.185        -649.773   128247827.42348  95769507.07908  98267833.35008  97018669.88809        51.850          51.200          52.900          55.700
G05  20834762.161    20834760.801    20834760.170                        -922.350        -718.715        -718.715                   109487438.59608  85314894.67808  85314911.67208                        51.450          50.300          51.400
G07  21901155.324    21901153.833    21901153.537                       -2125.604       -1656.314       -1656.314                   115091395.72208  89681624.03807  89681623.03008                        51.350          47.500          51.300
G08  24748583.809    24748585.922    24748584.936    24748583.854        1188.413         926.036         926.037         887.426   130054695.29006 101341329.53907 101341320.53706  97118766.81007        41.000          42.150          40.600          45.800
G09  24355934.575    24355936.287    24355935.856    24355936.001       -3277.794       -2554.127       -2554.126       -2447.673   127991352.68207  99733535.90807  99733533.90407  95577984.74907        46.400          44.100          46.700          45.550
G13  21565891.710                    21565889.892                        2371.442                        1847.878                   113329554.60608                  88308744.89707                        51.950                          45.550
G15  23963408.714    23963408.219    23963407.561                        3430.364        2673.013        2673.013                   125928575.42207  98126157.03006  98126163.03706                        45.700          40.650          40.850
G18  24597973.675    24597973.464    24597973.152    24597976.694         897.622         699.447         699.447         670.149   129263231.58207 100724592.32907 100724595.32406  96527746.70307        44.900          43.650          39.050          44.950
G27  25074587.062    25074588.829    25074588.209    25074586.871        -324.872        -253.147        -253.147        -242.500   131767846.21607 102676248.41907 102676247.41507  98398070.03907        43.200          42.000          43.050          42.650
G28  22238124.900                    22238122.801                        2768.975                        2157.646                   116862140.91708                  91061409.26407                        48.800                          43.300
G30  20411689.655    20411691.146    20411690.463    20411689.941        -462.085        -360.066        -360.066        -345.000   107264189.97808  83582496.89608  83582499.89408  80099899.26509        52.050          52.700          52.200          55.800
I02  37413008.251         307.253   146816737.31006        41.950
I03  41398651.663         -44.359   162457218.54206        37.950
I04  41215794.608        -352.204   161739654.29505        35.550
I06  38258521.438          24.612   150134658.09506        40.650
R01  19146761.857    19146763.732    19146764.500                        -252.344        -196.266        -196.266                   102350458.02008  79605933.26707  79605933.26807                        49.050          45.600          44.600
R02  21978760.290    21978761.321    21978761.208                        3727.424        2899.108        2899.108                   117282884.40708  91220041.28507  91220037.28507                        50.800          44.950          44.850
R08  21072383.991    21072383.935    21072383.885                       -3141.346       -2443.269       -2443.269                   112841698.31308  87765781.40208  87765778.40007                        49.150          48.000          47.450
R09  23846684.044    23846684.098    23846684.241                       -4214.829       -3278.200       -3278.201                   127340009.44107  99042237.36006  99042249.35806                        44.350          41.700          40.600
R10  20658796.503                                                       -2981.313                                                   110123040.74908                                                        50.550
R11  19453076.328    19453077.670    19453077.646                        1502.055        1168.264        1168.265                   103951350.24608  80851058.10508  80851063.10208                        52.900          50.650          50.150
R12  22538573.254    22538574.901    22538575.042                        4148.067        3226.274        3226.274                   120397030.27508  93642129.54007  93642130.53307                        50.150          44.900          44.050
R17  24271732.437    24271734.096    24271734.191                       -3170.489       -2465.937       -2465.937                   129882945.23007 101020065.83606 101020068.84206                        44.000          37.500          37.200
R18  23483901.631    23483904.238    23483904.456                        -707.977        -550.653        -550.651                   125358669.91507  97501201.36707  97501201.36707                        45.550          42.200          42.050
R19  24175363.901    24175365.166    24175364.854                        2252.168        1751.686        1751.687                   129321896.32706 100583698.78306 100583697.79106                        36.350          40.150          39.750
S23  38542430.171           3.546   202542256.10308        49.050
S36  38339091.064           -.776   201474615.87808        48.400
> 2020 06 25 00 11 30.0000000  0 40
C05  39932524.920    39932518.527    39932519.627           -.108           -.021           0.001   207939139.18707 168967567.91906 160791710.89806        42.050          41.200          38.850
C07  39710238.524    39710226.562    39710232.703        -647.338        -525.818        -500.401   206781663.23507 168027004.90306 159896693.20507        43.550          40.050          42.750
C10  38199498.771    38199490.405    38199496.553          -6.628          -5.410          -5.202   198914853.04407 161634587.09807 153813595.68107        44.950          44.500          46.950
C19  23861152.920    23861143.328                        2587.325        2102.559                   124251312.30608 100964346.07907                        49.200          46.250
C20  21968797.418    21968784.733                        -166.851        -135.474                   114397334.84708  92957170.93707                        52.300          47.500
C23  23731298.565                                       -2374.065                                   123575142.29108                                        52.200
E01  28211950.928    28211952.837    28211951.323    28211952.234       -2859.299       -2135.194       -2190.809       -2163.003   148254835.42547 110709805.68707 113597881.67507 112153845.85507        46.300          43.500          43.100          46.300
E03  27110558.278    27110559.804    27110560.594    27110560.930        2613.105        1951.297        2002.234        1976.784   142466966.69748 106387684.64407 109163007.30007 107775346.64208        48.200          44.350          46.700          48.700
E05  23629814.214    23629816.515    23629815.178    23629815.769         889.034         663.917         681.252         672.572   124175555.77748  92728528.64408  95147530.55909  93938031.27509        52.800          53.800          55.100          57.450
E09  22455639.787    22455642.372    22455641.369    22455641.818       -1654.340       -1235.278       -1267.490       -1251.392   118005238.14548  88120832.73708  90419628.50408  89270229.79409        53.350          52.100          53.350          55.800
E15  27537852.621    27537855.605    27537855.464    27537855.817       -1287.127        -960.951        -986.037        -973.467   144712403.88747 108064477.46707 110883543.64807 109474011.73207        45.200          42.700          44.900          46.900
E24  22665415.667    22665428.337    22665427.098    22665427.815        2003.672        1496.340        1535.354        1515.831   119107569.13048  88944020.68408  91264292.41108  90104158.72109        53.700          52.250          53.150          55.750
E25  28156614.284    28156617.369    28156615.259    28156615.303        3252.822        2428.941        2492.349        2460.722   147964005.18647 110492613.51006 113375023.59906 111933820.22107        47.300          40.300          41.100          43.750
E31  24409686.613    24409689.269    24409688.447    24409688.677        -872.468        -651.462        -668.458        -659.959   128273795.81848  95788899.06608  98287731.21508  97038314.81609        51.700          51.750          52.900          55.300
G05  20840083.670    20840082.328    20840081.656                        -942.191        -734.175        -734.174                   109515403.45208  85336685.47008  85336702.46508                        51.700          50.500          51.700
G07  21913314.413    21913312.851    21913312.474                       -2134.405       -1663.172       -1663.172                   115155291.85608  89731413.23507  89731412.22708                        51.800          47.350          51.800
G08  24741846.474    24741849.239    24741848.313    24741846.797        1171.486         912.849         912.848         874.972   130019292.39306 101313742.91407 101313733.90906  97092329.60307        41.450          43.950          41.100          45.750
G09  24374657.760    24374659.403    24374659.059    24374659.084       -3281.722       -2557.187       -2557.187       -2450.622   128089742.95507  99810203.64407  99810201.64007  95651458.01407        45.850          43.650          45.700          46.000
G13  21552377.020                    21552375.257                        2363.079                        1841.360                   113258534.57708                  88253404.61007                        51.750                          46.100
G15  23943834.740    23943834.183    23943833.544                        3426.912        2670.322        2670.322                   125825713.38907  98046004.84706  98046010.84506                        45.600          41.000          40.900
G18  24592903.082    24592902.564    24592902.179    24592905.737         878.791         684.774         684.776         656.380   129236583.81707 100703827.85607 100703830.86306  96507847.42007        44.500          44.100          38.500          45.500
G27  25076497.151    25076499.060    25076498.462    25076497.045        -344.581        -268.503        -268.503        -257.265   131777883.75307 102684069.87307 102684068.87607  98405565.60707        43.750          42.600          43.750          42.750
G28  22222350.259                    22222348.454                        2757.125                        2148.408                   116779245.22708                  90996815.24707                        51.000                          43.050
G30  20414368.372    20414369.891    20414369.181    20414368.632        -476.687        -371.445        -371.445        -355.878   107278266.70808  83593465.78408  83593468.78108  80110411.11409        51.950          52.900          51.950          56.300
I02  37410666.160         305.451   146807545.98007        42.650
I03  41398991.505         -44.477   162458551.48106        38.900
I04  41218491.396        -353.246   161750236.25306        36.700
I06  38258333.554          24.356   150133920.86906        41.200
R01  19148239.350    19148241.211    19148242.028                        -274.403        -213.425        -213.425                   102358356.24808  79612076.32507  79612076.32607                        49.100          45.400          44.550
R02  21957820.360    21957821.958    21957821.950                        3721.358        2894.388        2894.388                   117171147.93108  91133135.11807  91133131.11807                        50.400          46.050          45.350
R08  21090022.127    21090022.151    21090022.242                       -3155.637       -2454.384       -2454.385                   112936150.23908  87839243.99107  87839240.98907                        48.250          47.250          46.950
R09  23870369.569    23870369.672    23870369.914                       -4217.288       -3280.113       -3280.113                   127466488.70707  99140610.07507  99140622.07007                        46.950          44.550          43.250
R10  20675618.591                                                       -2996.959                                                   110212712.08208                                                        50.400
R11  19444708.861    19444710.156    19444710.178                        1478.763        1150.149        1150.149                   103906636.90708  80816281.07608  80816286.07208                        52.600          50.500          50.100
R12  22515300.683    22515302.501    22515302.675                        4139.391        3219.528        3219.528                   120272714.49508  93545439.48807  93545440.49207                        48.850          44.650          43.900
R17  24289542.885    24289544.301    24289544.143                       -3183.139       -2475.776       -2475.776                   129978249.63207 101094191.45806 101094194.45406                        44.600          38.300          37.800
R18  23487951.207    23487954.043    23487954.046                        -733.409        -570.428        -570.430                   125380286.81507  97518014.51107  97518014.49306                        45.600          42.200          41.600
R19  24162791.274    24162792.659    24162792.083                        2231.411        1735.542        1735.543                   129254642.52205 100531390.32106 100531389.32206                        35.850          37.900          37.000
S23  38542409.528           3.364   202542148.88708        48.950
S36  38339094.737           -.849   201474634.10808        48.350
> 2020 06 25 00 12 00.0000000  0 41
C05  39932524.229    39932517.799    39932518.882           0.161           0.221           0.105   207939135.38906 168967564.83606 160791707.97506        41.900          41.250          38.900
C07  39713975.647    39713963.980    39713969.937        -650.233        -528.319        -502.716   206801124.26207 168042818.58906 159911741.71107        43.050          40.200          43.250
C10  38199549.071    38199540.681    38199546.817         -10.812          -8.731          -8.253   198915114.73107 161634799.73607 153813798.02207        44.650          44.550          47.350
C19  23846268.126    23846258.751                        2579.827        2096.268                   124173804.40108 100901364.59307                        49.100          46.050
C20  21969801.201    21969788.518                        -181.606        -147.540                   114402562.06908  92961418.49107                        52.050          47.600
C23  23744998.855                                       -2382.088                                   123646484.01508                                        51.800
E01  28228285.136    28228286.938    28228285.460    28228286.623       -2863.176       -2138.137       -2193.880       -2165.928   148340671.42447 110773903.97307 113663652.11507 112218780.21607        47.250          42.950          44.350          46.550
E03  27095644.422    27095646.411    27095646.152    27095646.776        2611.824        1950.389        2001.318        1975.837   142388593.23047 106329159.06207 109102954.91607 107716057.66608        46.050          45.850          45.550          48.450
E05  23624761.769    23624764.206    23624763.056    23624763.629         881.068         657.868         675.031         666.474   124149006.56548  92708702.93508  95127187.65909  93917946.97009        52.250          53.800          55.400          57.400
E09  22465105.625    22465108.094    22465107.134    22465107.520       -1661.854       -1241.069       -1273.425       -1257.270   118054980.63149  88157978.10308  90457742.88108  89307859.66809        54.450          52.250          53.850          55.800
E15  27545234.756    27545237.646    27545237.467    27545237.977       -1299.275        -970.274        -995.720        -983.014   144751196.98647 108093446.34207 110913268.24107 109503358.46507        45.000          43.000          45.050          46.850
E24  22654008.105    22654020.891    22654019.425    22654020.247        1992.785        1488.114        1526.908        1507.539   119047622.19248  88899255.12108  91218359.04808  90058809.25509        53.700          52.400          53.400          55.700
E25  28138047.046    28138049.448    28138048.082    28138048.190        3252.080        2428.643        2491.757        2460.183   147866433.98247 110419751.86606 113300261.25407 111860008.23607        47.900          40.350          42.750          44.250
E31  24414703.807    24414706.609    24414705.745    24414705.972        -885.365        -661.134        -678.369        -669.745   128300161.92248  95808588.04508  98307933.81708  97058260.60409        51.950          51.950          53.100          55.300
G05  20845517.342    20845515.978    20845515.320                        -961.397        -749.141        -749.141                   109543957.42608  85358935.31208  85358952.30708                        51.550          50.400          51.350
G07  21925522.847    21925521.116    21925520.756                       -2142.639       -1669.589       -1669.589                   115219447.02608  89781404.28007  89781403.27208                        51.750          47.500          51.950
G08  24735204.064    24735206.850    24735206.136    24735204.387        1155.433         900.337         900.337         862.845   129984385.67107 101286542.88207 101286533.87807  97066262.90007        42.750          43.150          42.000          46.700
G09  24393402.089    24393403.649    24393403.261    24393403.328       -3285.025       -2559.761       -2559.761       -2453.191   128188244.88807  99886958.37707  99886956.38307  95725014.63707        45.200          43.300          45.450          45.850
G13  21538909.380                    21538907.541                        2355.219                        1835.237                   113187761.46908                  88198256.75207                        52.250                          45.600
G15  23924279.391    23924278.644    23924278.071                        3424.027        2668.074        2668.073                   125722948.08407  97965928.01006  97965934.01906                        47.000          41.650          41.650
G18  24587937.624    24587937.130    24587936.781    24587939.998         860.654         670.640         670.639         642.801   129210490.01607 100683495.05807 100683498.05706  96488361.82307        43.850          43.800          40.050          45.200
G27  25078518.187    25078520.243    25078519.839    25078518.115        -363.616        -283.341        -283.341        -271.457   131788505.16207 102692346.29107 102692345.28406  98413497.18007        42.050          42.300          41.350          42.950
G28  22206642.437                    22206640.199                        2745.879                        2139.647                   116696699.33608                  90932493.76807                        49.850                          42.700
G30  20417129.654    20417131.128    20417130.401    20417129.866        -490.705        -382.368        -382.368        -366.473   107292777.00308  83604772.51208  83604775.51008  80121246.73609        52.400          53.050          52.200          56.400
I02  37408335.896         304.173   146798400.82407        42.700
I03  41399331.010         -44.070   162459882.75606        38.950
I04  41221196.230        -354.303   161760849.57406        37.850
I06  38258146.508          24.376   150133187.00806        41.200
R01  19149839.099    19149841.046    19149841.892                        -295.796        -230.064        -230.063                   102366908.27208  79618727.88907  79618727.89607                        48.850          45.600          44.500
R02  21936913.308    21936915.756    21936915.771                        3715.872        2890.121        2890.122                   117059587.49308  91046365.90207  91046361.90807                        50.300          45.800          45.400
R08  21107739.229    21107739.199    21107739.248                       -3169.289       -2465.002       -2465.002                   113031024.99208  87913035.46407  87913032.46307                        48.450          47.000          46.600
R09  23894067.647    23894067.870    23894068.087                       -4219.092       -3281.517       -3281.516                   127593034.31107  99239034.38607  99239046.38307                        47.250          43.950          42.850
R10  20692527.677                                                       -3012.008                                                   110302846.89408                                                        50.600
R11  19436471.148    19436472.323    19436472.289                        1455.960        1132.414        1132.415                   103862616.81508  80782043.23108  80782048.23108                        52.850          50.200          49.750
R12  22492076.730    22492078.902    22492079.287                        4131.201        3213.157        3213.158                   120148656.82408  93448950.20407  93448951.20307                        50.150          46.400          45.550
R17  24307422.426    24307423.537    24307423.344                       -3195.319       -2485.246       -2485.248                   130073925.72006 101168606.23406 101168609.21906                        40.700          37.200          36.850
R18  23492142.798    23492145.201    23492145.451                        -758.337        -589.816        -589.816                   125402661.53707  97535417.09206  97535417.07806                        46.100          41.850          40.300
R19  24150333.942    24150335.218    24150334.776                        2210.970        1719.642        1719.642                   129188006.00306 100479561.92006 100479560.91706                        36.300          36.900          36.000
S23  38542388.962           3.809   202542041.93508        49.100
S26  40170808.047          72.090   211099019.98316        41.200
S36  38339099.084           -.652   201474657.81708        48.550
> 2020 06 25 00 12 30.0000000  0 40
C05  39932522.930    39932516.484    39932517.616           0.123           0.110           0.201   207939128.58106 168967559.31806 160791702.70006        41.750          41.350          38.600
C07  39717731.977    39717720.419    39717726.385        -653.760        -531.228        -505.655   206820684.68107 168058713.03006 159926867.07707        43.600          40.350          43.150
C10  38199624.646    38199616.201    38199622.322         -15.378         -12.437         -11.881   198915507.81707 161635119.16407 153814102.00707        44.650          44.750          47.000
C19  23831429.333    23831419.829                        2571.574        2089.619                   124096535.18208 100838577.03707                        49.300          46.550
C20  21970892.448    21970879.834                        -197.097        -160.148                   114408244.71408  92966036.10007                        52.000          47.850
C23  23758747.863                                       -2390.847                                   123718079.02808                                        51.900
E01  28244643.114    28244644.967    28244643.738    28244644.495       -2867.590       -2141.311       -2197.181       -2169.277   148426633.07247 110838096.09007 113729518.80307 112283809.62307        45.800          42.500          44.550          47.100
E03  27080738.502    27080741.197    27080740.075    27080740.350        2609.902        1949.081        1999.947        1974.519   142310263.10647 106270665.85107 109042935.73307 107656801.46408        46.600          45.300          46.150          49.150
E05  23619757.603    23619759.918    23619759.122    23619759.576         872.205         651.331         668.371         659.850   124122710.12248  92689065.97208  95107038.42509  93898053.87109        52.300          53.600          55.250          57.950
E09  22474617.543    22474619.564    22474618.721    22474618.893       -1670.236       -1247.210       -1279.733       -1263.465   118104963.25649  88195302.78208  90496041.24808  89345671.19009        55.100          52.200          53.750          56.400
E15  27552689.735    27552692.947    27552692.513    27552693.083       -1312.344        -980.033       -1005.560        -992.782   144790373.59447 108122701.57907 110943286.65807 109532995.29107        44.350          42.000          44.350          46.750
E24  22642665.272    22642678.067    22642676.633    22642677.397        1981.019        1479.396        1518.004        1498.694   118988015.36348  88854743.54408  91172686.29308  90013717.09309        53.900          52.100          53.300          56.150
E25  28119486.154    28119488.110    28119487.645    28119487.708        3250.410        2427.382        2490.761        2459.048   147768896.68947 110346915.56907 113225524.90307 111786221.91507        45.250          42.000          45.400          47.200
E31  24419796.557    24419799.434    24419798.563    24419798.771        -898.781        -671.220        -688.688        -679.952   128326924.72048  95828573.26308  98328440.38408  97078506.49809        51.550          51.800          52.800          55.750
G05  20851063.001    20851061.563    20851060.914                        -981.300        -764.649        -764.649                   109573099.72508  85381643.60408  85381660.59808                        51.950          50.300          51.850
G07  21937780.153    21937778.405    21937778.049                       -2151.476       -1676.475       -1676.474                   115283859.55808  89831595.85607  89831594.84908                        51.150          47.300          51.150
G08  24728656.325    24728658.667    24728657.655    24728657.016        1138.630         887.243         887.243         850.258   129949977.12606 101259731.03306 101259722.03406  97040568.27407        41.500          40.600          40.850          46.100
G09  24412167.490    24412169.056    24412168.664    24412168.822       -3288.972       -2562.836       -2562.836       -2456.153   128286857.59807  99963799.44407  99963797.44207  95798653.99407        45.750          43.150          45.000          45.550
G13  21525488.976                    21525487.080                        2346.478                        1828.424                   113117236.77008                  88143302.44407                        52.300                          45.650
G15  23904742.412    23904741.506    23904740.906                        3420.347        2665.208        2665.207                   125620280.91607  97885927.68106  97885933.67906                        45.600          40.850          39.750
G18  24583077.535    24583077.251    24583076.882    24583079.858         841.955         656.070         656.070         628.760   129184951.05207 100663594.56907 100663597.57006  96469290.52907        43.250          43.750          41.350          45.000
G27  25080650.300    25080652.493    25080651.855    25080650.600        -383.376        -298.737        -298.736        -286.283   131799710.34007 102701077.58106 102701076.58107  98421864.67407        42.750          41.550          42.900          43.150
G28  22191001.554                    22190999.136                        2733.663                        2130.127                   116614505.82908                  90868446.89007                        50.600                          42.900
G30  20419973.261    20419974.693    20419973.966    20419973.401        -505.529        -393.918        -393.918        -377.357   107307720.03508  83616416.43008  83616419.42908  80132405.48609        52.400          52.750          52.400          56.250
I02  37406017.350         302.578   146789302.07307        42.850
I03  41399669.948         -44.333   162461212.40906        39.350
I04  41223908.979        -355.316   161771494.17906        37.600
I06  38257960.355          24.103   150132456.55406        41.400
R01  19151561.379    19151563.506    19151564.292                        -317.939        -247.286        -247.286                   102376115.14308  79625888.78807  79625888.79007                        48.950          45.750          44.750
R02  21916040.532    21916043.037    21916043.111                        3709.513        2885.175        2885.175                   116948206.44008  90959736.19807  90959732.19907                        50.900          45.450          44.850
R08  21125535.057    21125535.035    21125535.061                       -3183.666       -2476.185       -2476.185                   113126320.95608  87987154.55207  87987151.55407                        48.350          46.900          46.600
R09  23917777.548    23917777.716    23917777.886                       -4221.411       -3283.320       -3283.321                   127719643.65107  99337508.26707  99337520.26806                        45.550          42.250          41.150
R10  20709523.098                                                       -3027.599                                                   110393441.84608                                                        50.950
R11  19428363.109    19428364.459    19428364.445                        1432.426        1114.109        1114.109                   103819290.64008  80748345.10608  80748350.10308                        52.450          50.800          50.200
R12  22468901.550    22468904.145    22468904.554                        4122.094        3206.072        3206.072                   120024859.96508  93352663.77507  93352664.76907                        49.350          45.050          44.550
R17  24325370.752    24325371.764    24325371.716                       -3207.756       -2494.923       -2494.921                   130169969.53907 101243306.94306 101243309.93906                        42.350          40.950          39.850
R18  23496475.949    23496478.217    23496478.515                        -783.902        -609.701        -609.702                   125425792.74607  97553408.01006  97553408.00806                        45.750          40.500          39.600
R19  24137993.333    24137994.136    24137993.850                        2190.153        1703.453        1703.453                   129121990.36006 100428216.41606 100428215.41306                        38.050          39.100          38.700
S23  38542368.259           3.324   202541935.24708        49.150
S36  38339102.804           -.802   201474679.02508        48.450
> 2020 06 25 00 13 00.0000000  0 40
C05  39932521.120    39932514.635    39932515.811           0.040           0.455           0.255   207939118.78306 168967551.34106 160791695.13606        41.700          41.500          38.400
C07  39721507.407    39721495.715    39721501.749        -656.785        -533.781        -507.901   206840344.09707 168074687.92706 159942068.99007        42.950          40.100          42.700
C10  38199725.296    38199716.876    38199722.980         -19.807         -15.971         -15.218   198916031.95607 161635545.06607 153814507.29507        44.650          44.550          46.750
C19  23816636.782    23816627.316                        2563.512        2083.132                   124019506.47608 100775984.92507                        49.650          46.600
C20  21972071.303    21972058.739                        -212.211        -172.453                   114414383.13108  92971024.06707                        52.150          47.700
C23  23772545.332                                       -2399.087                                   123789925.52208                                        51.900
E01  28261024.524    28261026.331    28261025.588    28261025.861       -2871.577       -2144.377       -2200.300       -2172.328   148512718.75747 110902380.83107 113795480.51507 112348932.84607        44.650          42.250          44.500          46.800
E03  27065841.177    27065843.582    27065842.922    27065842.739        2608.743        1948.220        1998.949        1973.622   142231977.06047 106212205.53607 108982950.37007 107597578.62508        47.650          43.900          47.150          48.950
E05  23614801.928    23614803.870    23614803.494    23614803.754         863.875         645.109         661.954         653.541   124096667.20148  92669618.34408  95087083.46709  93878352.57509        53.000          53.750          55.200          57.850
E09  22484175.142    22484176.619    22484175.859    22484175.944       -1678.123       -1253.124       -1285.789       -1269.443   118155185.80449  88232806.64608  90534523.46908  89383664.23209        54.900          52.200          53.500          56.150
E15  27560217.527    27560220.796    27560220.135    27560220.745       -1325.068        -989.360       -1015.164       -1002.244   144829932.29847 108152242.16607 110973597.85507 109562921.18307        43.650          42.650          43.800          46.550
E24  22631387.551    22631399.878    22631398.830    22631399.558        1969.836        1471.016        1509.356        1490.219   118928749.63548  88810486.66308  91127274.89308  89968882.95009        53.850          52.250          53.200          56.100
E25  28100931.825    28100933.983    28100933.892    28100933.885        3249.091        2426.509        2489.739        2458.145   147671394.64447 110274105.65907 113150815.61407 111712462.30907        43.150          42.950          45.300          47.550
E31  24424964.678    24424967.546    24424966.652    24424966.872        -911.900        -680.924        -698.665        -689.794   128354083.16848  95848853.92208  98349250.10808  97099051.68909        51.700          52.050          52.650          55.700
G05  20856720.365    20856718.878    20856718.219                       -1000.878        -779.906        -779.906                   109602829.26208  85404809.47208  85404826.46608                        51.200          50.300          51.100
G07  21950086.045    21950084.410    21950084.042                       -2159.929       -1683.062       -1683.061                   115348527.99908  89881986.84107  89881985.83808                        50.900          47.300          50.950
G08  24722203.838    24722205.612    24722204.595    24722203.982        1121.889         874.199         874.200         837.900   129916068.12107 101233308.41007 101233299.41707  97015246.60907        43.550          42.700          43.200          44.850
G09  24430953.776    24430955.191    24430954.795    24430954.866       -3292.683       -2565.727       -2565.727       -2458.686   128385580.13007 100040726.08907 100040724.08807  95872375.36107        44.850          42.250          44.950          45.450
G13  21512115.964                    21512114.177                        2338.298                        1822.050                   113046961.54608                  88088542.53907                        51.700                          45.800
G15  23885224.275    23885223.363    23885222.593                        3417.040        2662.629        2662.629                   125517713.43807  97806005.00406  97806011.00306                        45.900          39.700          40.350
G18  24578323.106    24578322.880    24578322.603    24578325.441         823.455         641.656         641.657         614.936   129159967.49607 100644126.93107 100644129.92706  96450634.03807        44.100          43.250          39.400          44.950
G27  25082893.633    25082895.684    25082895.076    25082894.046        -402.683        -313.778        -313.779        -300.744   131811498.99607 102710263.54906 102710262.54007  98430667.89607        42.350          41.700          42.250          43.500
G28  22175428.132                    22175425.859                        2721.980                        2121.024                   116532667.02108                  90804676.40207                        49.050                          43.350
G30  20422899.024    20422900.399    20422899.698    20422899.085        -519.738        -404.990        -404.990        -388.076   107323094.76208  83628396.74808  83628399.74508  80143886.63009        52.150          52.800          52.200          56.400
I02  37403710.573         300.930   146780249.55607        42.850
I03  41400008.499         -44.340   162462540.30806        39.050
I04  41226629.531        -356.193   161782169.95606        36.850
I06  38257775.109          24.042   150131729.47206        41.400
R01  19153406.307    19153408.501    19153409.366                        -339.687        -264.202        -264.202                   102385977.47608  79633559.48507  79633559.48807                        48.850          45.800          44.950
R02  21895201.700    21895204.312    21895204.269                        3703.631        2880.603        2880.603                   116837006.75208  90873247.59107  90873243.59807                        52.250          45.350          45.050
R08  21143409.302    21143409.350    21143409.282                       -3197.532       -2486.968       -2486.968                   113222036.57608  88061600.03007  88061597.02507                        49.100          47.400          46.900
R09  23941498.371    23941498.563    23941498.682                       -4223.410       -3284.875       -3284.875                   127846313.57007  99436029.30506  99436041.30206                        44.950          41.150          40.400
R10  20726604.144                                                       -3042.643                                                   110484493.22808                                                        50.950
R11  19420385.203    19420386.594    19420386.594                        1409.384        1096.189        1096.189                   103776659.04608  80715187.21908  80715192.21608                        52.050          50.800          50.250
R12  22445775.569    22445778.126    22445778.347                        4113.304        3199.235        3199.235                   119901326.58208  93256582.24207  93256583.23507                        49.350          44.200          43.400
R17  24343386.843    24343387.647    24343387.663                       -3219.522       -2504.081       -2504.079                   130266376.39806 101318289.93806 101318292.94606                        39.900          38.500          36.950
R18  23500950.591    23500952.626    23500952.735                        -808.789        -629.063        -629.061                   125449679.00207  97571986.20906  97571986.21606                        44.700          41.400          41.000
R19  24125769.111    24125769.949    24125769.638                        2169.237        1687.184        1687.184                   129056598.70706 100377356.22806 100377355.23906                        37.700          39.250          38.800
S23  38542348.190           3.544   202541827.71908        48.850
S36  38339106.883           -.983   201474697.22907        47.900
> 2020 06 25 00 13 30.0000000  0 41
C05  39932518.703    39932512.168    39932513.201           0.781           0.337           0.364   207939105.96207 168967540.96906 160791685.25106        42.250          41.150          38.600
C07  39725301.704    39725290.237    39725296.182        -660.311        -536.542        -510.540   206860102.26707 168090743.05306 159957347.24607        43.300          40.300          43.050
C10  38199851.126    38199842.673    38199848.733         -24.018         -19.527         -18.594   198916686.90907 161636077.28107 153815013.75007        45.200          44.500          46.950
C12  26793047.774    26793040.111    26793045.455         -42.949         -35.129         -33.187   139518433.78806 113370124.73305 107884493.62705        37.300          34.600          35.650
C19  23801890.798    23801881.274                        2555.560        2076.509                   123942720.20808 100713589.82307                        49.400          46.300
C20  21973337.835    21973325.168                        -227.463        -184.864                   114420977.77808  92976382.76307                        52.400          47.600
C23  23786390.754                                       -2407.415                                   123862021.75608                                        52.300
E01  28277429.282    28277431.053    28277430.533    28277430.478       -2875.596       -2147.254       -2203.410       -2175.340   148598926.76147 110966756.91007 113861535.95707 112414148.61107        45.850          42.400          44.200          46.550
E03  27050952.417    27050954.107    27050954.499    27050954.279        2607.333        1947.056        1997.778        1972.464   142153736.03147 106153778.80107 108922999.49907 107538389.82008        47.700          43.000          47.850          48.900
E05  23609894.850    23609896.373    23609896.282    23609896.350         855.343         638.722         655.421         647.091   124070878.73048  92650360.73908  95067323.48509  93858843.78409        53.850          53.750          55.400          57.850
E09  22493777.991    22493779.146    22493778.493    22493778.609       -1686.097       -1259.105       -1291.967       -1275.504   118205648.15448  88270489.57108  90573189.43208  89421838.67609        53.900          51.900          53.450          55.900
E15  27567817.916    27567821.198    27567820.258    27567820.879       -1337.588        -998.902       -1024.964       -1011.863   144869871.75747 108182067.12607 111004200.84807 109593135.15507        46.000          42.300          43.850          46.300
E24  22620174.763    22620187.107    22620186.008    22620186.773        1958.369        1462.459        1500.566        1481.522   118869826.02748  88766485.27008  91082125.63908  89924307.62809        53.750          52.400          53.300          56.150
E25  28082384.572    28082386.975    28082387.019    28082386.848        3248.425        2425.594        2488.823        2457.209   147573929.27647 110201323.15807 113076134.43207 111638730.46707        45.050          43.050          45.100          47.400
E31  24430207.939    24430210.743    24430209.791    24430210.078        -924.979        -690.754        -708.762        -699.768   128381636.27548  95869429.29108  98370362.23008  97119895.43609        51.850          52.000          52.750          55.700
G05  20862489.449    20862487.957    20862487.317                       -1020.327        -795.059        -795.060                   109633145.64208  85428432.62408  85428449.62008                        51.900          50.350          51.900
G07  21962440.494    21962438.899    21962438.545                       -2168.321       -1689.601       -1689.601                   115413451.00108  89932576.19607  89932575.19108                        51.700          47.850          51.900
G08  24715846.812    24715848.931    24715848.116    24715845.703        1105.188         861.186         861.186         825.310   129882660.91807 101207276.83407 101207267.83307  96990299.62907        42.250          43.500          42.550          44.350
G09  24449760.794    24449762.240    24449761.946    24449761.989       -3296.218       -2568.483       -2568.483       -2461.532   128484411.65207 100117737.64007 100117735.63607  95946178.10207        45.700          43.500          45.700          45.450
G13  21498790.694                    21498788.930                        2329.932                        1815.532                   112976937.04208                  88033978.00507                        51.700                          45.750
G15  23865725.703    23865724.503    23865723.809                        3413.845        2660.139        2660.140                   125415247.03107  97726161.06706  97726167.07106                        47.250          40.850          40.850
G18  24573674.906    24573674.523    24573674.223    24573677.046         804.814         627.127         627.128         601.018   129135540.15207 100625092.63707 100625095.63806  96432392.85507        45.050          43.400          39.250          45.350
G27  25085247.933    25085250.080    25085249.527    25085248.491        -422.231        -329.010        -329.010        -315.260   131823871.02607 102719904.06706 102719903.07307  98439906.73807        42.700          41.650          42.850          43.350
G28  22159922.286                    22159920.259                        2710.077                        2111.747                   116451185.47908                  90741184.32207                        50.600                          42.650
G30  20425906.791    20425908.089    20425907.404    20425906.807        -534.058        -416.149        -416.149        -398.831   107338900.37408  83640712.81608  83640715.81208  80155689.52809        52.650          52.850          52.600          56.350
I02  37401415.546         299.467   146771243.25407        42.750
I03  41400346.434         -43.977   162463866.49006        38.650
I04  41229358.091        -357.410   161792876.80206        37.150
I06  38257590.724          24.007   150131005.77406        41.400
R01  19155374.088    19155376.349    19155377.115                        -361.555        -281.210        -281.209                   102396496.25308  79641740.76107  79641740.76307                        48.700          45.750          44.750
R02  21874397.867    21874400.105    21874400.001                        3697.391        2875.750        2875.749                   116725992.21808  90786902.97807  90786898.97707                        52.350          45.750          45.700
R08  21161361.543    21161361.540    21161361.500                       -3211.282       -2497.665       -2497.664                   113318169.95008  88136370.42407  88136367.42107                        48.700          46.700          46.400
R09  23965230.364    23965230.791    23965230.842                       -4225.106       -3286.194       -3286.195                   127973041.24907  99534595.29107  99534607.29407                        46.250          44.050          42.650
R10  20743770.101                                                       -3057.629                                                   110575996.97508                                                        51.100
R11  19412537.349    19412538.834    19412538.882                        1386.322        1078.250        1078.250                   103734723.00508  80682570.30308  80682575.29808                        52.450          50.850          50.200
R12  22422700.016    22422702.214    22422702.403                        4104.488        3192.376        3192.377                   119778059.67108  93160707.95107  93160708.94807                        51.200          45.650          45.050
R17  24361469.934    24361470.432    24361470.596                       -3231.299       -2513.233       -2513.232                   130363142.26206 101393552.28406 101393555.29106                        41.700          37.550          37.050
R18  23505566.594    23505568.769    23505568.758                        -833.849        -648.548        -648.548                   125474318.67707  97591150.42506  97591150.41906                        45.650          41.850          40.700
R19  24113662.047    24113662.983    24113662.666                        2147.909        1670.595        1670.595                   128991833.85706 100326983.56806 100326982.56806                        37.250          40.300          39.200
S23  38542328.065           3.768   202541719.40708        49.150
S36  38339110.889           -.703   201474718.80308        48.350
> 2020 06 25 00 14 00.0000000  0 41
C05  39932515.546    39932509.107    39932510.168           0.678           0.411           0.276   207939090.17607 168967528.13906 160791673.06506        42.200          41.150          38.500
C07  39729114.969    39729103.612    39729109.383        -663.503        -539.297        -513.121   206879958.67807 168106878.02806 159972701.49307        43.400          40.350          42.600
C10  38200002.009    38199993.553    38199999.645         -28.579         -23.154         -21.968   198917472.54707 161636715.67207 153815621.25107        45.100          44.400          46.900
C12  26793343.249    26793335.408    26793341.116         -59.388         -48.386         -46.038   139519972.67105 113371375.23805 107885683.62206        34.900          35.250          37.050
C19  23787191.799    23787182.146                        2547.341        2069.887                   123866178.28308 100651393.24807                        49.950          46.500
C20  21974692.029    21974679.287                        -242.662        -197.210                   114428029.02408  92982112.48007                        52.650          47.700
C23  23800283.720                                       -2415.572                                   123934365.96208                                        52.350
E01  28293857.270    28293859.103    28293858.194    28293858.267       -2879.696       -2150.304       -2206.496       -2178.470   148685255.49047 111031223.12807 113927683.91807 112479455.69707        46.250          42.900          42.950          46.200
E03  27036072.240    27036073.779    27036074.553    27036074.634        2605.698        1945.830        1996.525        1971.209   142075540.87747 106095386.32307 108863083.76307 107479235.71408        47.900          44.150          47.200          49.250
E05  23605036.411    23605037.683    23605037.561    23605037.532         846.869         632.387         648.891         640.647   124045345.56948  92631293.78008  95047759.13009  93839528.12709        53.750          53.800          55.300          57.900
E09  22503425.821    22503427.247    22503426.582    22503426.876       -1693.996       -1265.061       -1298.046       -1281.543   118256350.12648  88308351.41608  90612038.97508  89460194.36809        52.650          51.800          53.100          55.800
E15  27575490.301    27575493.577    27575492.531    27575493.247       -1350.122       -1008.246       -1034.607       -1021.425   144910190.68847 108212175.40407 111035094.56407 109623636.15807        44.500          42.450          43.700          46.450
E24  22609027.076    22609039.678    22609038.514    22609039.236        1947.004        1453.902        1491.806        1472.880   118811245.56548  88722740.13508  91037239.32208  89879991.90309        53.450          52.250          53.300          56.150
E25  28063844.909    28063847.241    28063847.170    28063847.046        3246.859        2424.662        2487.979        2456.369   147476502.08447 110128569.08907 113001482.42307 111565027.42307        46.050          42.800          44.950          47.250
E31  24435526.111    24435528.796    24435527.789    24435528.179        -938.148        -700.579        -718.826        -709.684   128409582.98048  95890298.58208  98391775.94008  97141036.93409        51.800          51.950          52.650          55.600
G05  20868369.828    20868368.395    20868367.780                       -1039.798        -810.232        -810.233                   109664047.55308  85452512.02808  85452529.02008                        51.450          50.550          51.600
G07  21974843.197    21974841.502    21974841.202                       -2176.764       -1696.180       -1696.180                   115478627.01908  89983362.70207  89983361.69708                        52.100          47.750          52.200
G08  24709584.806    24709587.749    24709586.937    24709584.945        1088.294         848.020         848.019         812.755   129849757.15707 101181637.60907 101181628.60107  96965728.67407        42.650          42.450          42.950          46.050
G09  24468588.241    24468589.762    24468589.442    24468589.417       -3299.903       -2571.355       -2571.354       -2464.155   128583351.23307 100194833.38107 100194831.37707  96020061.52107        44.900          42.700          44.800          45.400
G13  21485513.284                    21485511.599                        2321.573                        1809.018                   112907164.48608                  87979609.79607                        51.650                          46.250
G15  23846246.550    23846245.468    23846244.817                        3410.393        2657.452        2657.452                   125312883.25107  97646397.14006  97646403.14006                        46.650          41.550          41.100
G18  24569132.547    24569132.047    24569131.715    24569134.545         786.449         612.819         612.819         587.244   129111669.70207 100606492.28507 100606495.28206  96414567.50307        44.850          43.450          39.750          45.600
G27  25087713.249    25087715.269    25087714.752    25087713.603        -441.496        -344.024        -344.023        -329.638   131836826.14807 102729998.96706 102729997.95707  98449580.98707        43.350          41.550          43.300          42.900
G28  22144485.719                    22144483.427                        2698.050                        2102.376                   116370063.61208                  90677972.46807                        51.450                          43.350
G30  20428996.403    20428997.597    20428996.886    20428996.367        -548.309        -427.254        -427.254        -409.461   107355135.89508  83653363.87008  83653366.86908  80167813.45909        53.000          52.850          52.950          56.300
I02  37399132.248         297.858   146762283.08107        42.750
I03  41400683.939         -44.402   162465190.98606        38.950
I04  41232094.352        -358.540   161803614.62306        37.050
I06  38257407.262          23.959   150130285.49606        41.250
R01  19157464.767    19157467.023    19157467.800                        -383.543        -298.311        -298.311                   102407672.07408  79650433.06207  79650433.06307                        49.250          45.750          45.100
R02  21853629.167    21853631.450    21853631.250                        3691.019        2870.798        2870.796                   116615166.00508  90700704.86507  90700700.86507                        52.250          46.600          46.250
R08  21179391.500    21179391.337    21179391.278                       -3225.240       -2508.521       -2508.521                   113414719.30208  88211464.36307  88211461.36307                        49.600          47.400          46.950
R09  23988972.747    23988973.445    23988973.556                       -4227.060       -3287.714       -3287.714                   128099823.97907  99633204.06907  99633216.06507                        45.050          44.250          43.650
R10  20761020.235                                                       -3072.525                                                   110667949.88808                                                        51.000
R11  19404819.896    19404821.370    19404821.407                        1363.047        1060.149        1060.148                   103693483.11508  80650494.85508  80650499.84808                        53.050          50.800          50.300
R12  22399674.615    22399676.929    22399677.208                        4095.447        3185.350        3185.350                   119655061.69308  93065042.89507  93065043.89107                        49.700          45.950          45.000
R17  24379619.397    24379619.911    24379619.914                       -3243.411       -2522.652       -2522.654                   130460262.72407 101469090.48406 101469093.46506                        42.750          39.650          38.900
R18  23510323.292    23510325.855    23510325.932                        -858.851        -667.995        -667.995                   125499710.53607  97610899.64207  97610899.63707                        46.400          43.350          42.800
R19  24101672.401    24101673.861    24101673.532                        2127.156        1654.457        1654.457                   128927699.48005 100277101.33806 100277100.34406                        35.350          39.950          39.800
S23  38542307.752           3.599   202541610.73708        49.150
S36  38339115.164          -1.025   201474741.86208        48.400
> 2020 06 25 00 14 30.0000000  0 42
C05  39932511.896    39932505.475    39932506.500           0.471           0.491           0.357   207939071.39307 168967512.87906 160791658.53506        42.050          41.300          38.550
C07  39732946.980    39732935.708    39732941.456        -666.462        -541.814        -515.649   206899912.93707 168123092.49306 159988131.39807        43.350          40.200          43.050
C10  38200177.892    38200169.450    38200175.563         -32.907         -26.629         -25.377   198918388.44107 161637459.92507 153816329.49807        44.950          44.400          47.000
C12  26793733.677    26793725.731    26793731.355         -75.767         -61.647         -58.827   139522003.58705 113373025.48906 107887253.98206        34.950          37.350          37.750
C19  23772540.103    23772530.241                        2538.951        2063.158                   123789882.54908 100589396.73307                        49.900          46.300
C20  21976133.959    21976121.187                        -258.008        -209.678                   114435537.26808  92988213.53607                        52.400          47.650
C23  23814223.886                                       -2423.919                                   124006956.37708                                        51.850
E01  28310307.962    28310309.647    28310308.399    28310308.868       -2883.548       -2153.343       -2209.607       -2181.466   148771703.26747 111095778.27807 113993923.12807 112544852.88007        46.200          43.400          42.850          46.400
E03  27021201.132    27021202.860    27021203.168    27021203.421        2604.103        1944.690        1995.326        1969.945   141997392.42247 106037028.73907 108803203.78807 107420116.94208        47.350          44.800          46.300          48.950
E05  23600226.436    23600227.927    23600227.519    23600227.489         838.200         625.912         642.240         634.089   124020068.60148  92612418.13508  95028391.07709  93820406.28009        52.950          53.650          55.400          57.850
E09  22513118.979    22513121.080    22513120.235    22513120.751       -1702.021       -1271.102       -1304.237       -1287.664   118307291.53648  88346392.05708  90651071.98808  89498731.19709        52.850          51.550          53.300          55.800
E13  28379680.874    28379682.133    28379681.591    28379682.121         887.908         662.984         680.438         671.803   149136226.70846 111367970.24806 114273217.86406 112820593.72206        40.750          36.400          38.600          40.850
E15  27583234.672    27583238.145    27583236.890    27583237.694       -1362.993       -1017.707       -1044.400       -1031.144   144950887.68247 108242566.01907 111066277.99007 109654423.18507        44.200          42.050          43.600          46.200
E24  22597944.983    22597957.615    22597956.695    22597957.258        1935.352        1445.246        1482.919        1464.073   118753009.22948  88679251.96208  90992616.68208  89835936.49809        53.450          52.000          53.550          56.100
E25  28045312.813    28045314.970    28045314.570    28045314.868        3245.382        2423.494        2486.872        2455.197   147379114.40247 110055844.53007 112926860.69807 111491354.28607        45.400          42.600          44.500          46.900
E31  24440918.935    24440921.523    24440920.510    24440920.984        -951.293        -710.365        -728.906        -719.615   128437922.22648  95911461.00208  98413490.42708  97162475.38509        51.700          51.650          52.750          55.550
G05  20874361.532    20874360.251    20874359.696                       -1059.337        -825.457        -825.457                   109695534.54508  85477047.33208  85477064.33008                        51.100          50.700          51.000
G07  21987293.757    21987291.944    21987291.668                       -2185.134       -1702.702       -1702.702                   115544054.59808  90034345.23007  90034344.22408                        51.900          47.900          51.900
G08  24703419.657    24703422.141    24703421.111    24703420.502        1071.300         834.777         834.777         800.036   129817358.32607 101156391.72806 101156382.72207  96941534.77907        43.300          41.350          43.600          45.250
G09  24487436.391    24487437.745    24487437.434    24487437.510       -3303.325       -2574.021       -2574.022       -2466.888   128682398.01107 100272012.67907 100272010.67707  96094025.01907        45.900          42.900          46.200          45.550
G13  21472284.245                    21472282.524                        2312.901                        1802.260                   112837645.33808                  87925439.03407                        52.050                          46.400
G15  23826787.157    23826786.111    23826785.416                        3406.770        2654.626        2654.626                   125210623.64107  97566714.38906  97566720.38106                        47.050          41.500          40.750
G18  24564696.427    24564695.699    24564695.339    24564698.520         767.858         598.331         598.331         573.303   129088356.70407 100588326.34107 100588329.34106  96397158.49807        44.350          43.700          40.600          45.100
G27  25090289.610    25090291.415    25090290.919    25090289.905        -461.282        -359.441        -359.441        -344.326   131850364.05207 102740547.97106 102740546.97007  98459690.46607        43.600          41.850          43.550          42.800
G28  22129117.536                    22129115.222                        2685.757                        2092.801                   116289303.91108                  90615042.85707                        49.300                          43.300
G30  20432167.723    20432168.742    20432168.067    20432167.518        -562.749        -438.505        -438.505        -420.197   107371800.39808  83666349.20208  83666352.20108  80180257.73209        52.950          53.100          53.000          56.000
I02  37396860.780         296.278   146753369.16807        42.550
I03  41401021.052         -44.042   162466513.75406        38.300
I04  41234838.397        -359.405   161814383.27006        36.400
I06  38257224.567          23.632   150129568.62006        40.950
R01  19159678.417    19159680.695    19159681.489                        -405.531        -315.414        -315.414                   102419505.49208  79659636.82507  79659636.83007                        49.550          45.800          44.900
R02  21832896.275    21832898.376    21832898.303                        3684.529        2865.748        2865.748                   116504530.57108  90614655.11007  90614651.10707                        50.100          46.650          45.850
R08  21197499.150    21197498.792    21197498.796                       -3239.081       -2519.285       -2519.285                   113511682.72108  88286880.33807  88286877.34607                        50.000          47.250          46.900
R09  24012724.505    24012725.631    24012725.703                       -4228.832       -3289.092       -3289.093                   128226658.77007  99731853.27607  99731865.27307                        45.800          43.750          42.800
R10  20778353.957                                                       -3087.391                                                   110760347.96708                                                        50.950
R11  19397233.048    19397234.296    19397234.254                        1339.736        1042.016        1042.016                   103652940.20008  80618961.46308  80618966.46208                        53.800          50.700          50.200
R12  22376699.856    22376702.167    22376702.388                        4086.196        3178.151        3178.151                   119532335.67008  92969589.30507  92969590.30207                        49.600          44.650          43.900
R17  24397833.835    24397834.510    24397834.428                       -3254.864       -2531.564       -2531.563                   130557733.18406 101544900.83406 101544903.83706                        41.300          38.000          37.400
R18  23515220.716    23515223.355    23515223.895                        -884.055        -687.601        -687.600                   125525853.27907  97631232.86407  97631232.85706                        46.350          43.000          41.700
R19  24089801.338    24089803.061    24089802.716                        2106.007        1638.005        1638.005                   128864198.63606 100227711.82306 100227710.83106                        36.950          38.850          39.550
S23  38542287.097           3.364   202541501.30608        49.050
S36  38339118.825           -.756   201474762.27408        48.450
> 2020 06 25 00 15 00.0000000  0 42
C05  39932507.712    39932501.287    39932502.374           0.713           0.517           0.464   207939049.58607 168967495.17406 160791641.69306        42.350          41.550          38.150
C07  39736797.792    39736786.567    39736792.204        -670.336        -544.404        -518.156   206919964.69807 168139386.16506 160003636.66307        43.700          40.650          42.700
C10  38200378.807    38200370.293    38200376.446         -37.237         -30.275         -28.810   198919434.42207 161638309.87507 153817138.32007        45.400          44.650          46.900
C12  26794218.238    26794210.491    26794216.035         -92.560         -75.084         -71.602   139524526.39505 113375075.55605 107889204.88805        31.300          34.000          34.300
C19  23757935.977    23757926.044                        2530.527        2056.323                   123713834.91208 100527601.79507                        49.750          46.650
C20  21977663.655    21977650.856                        -273.269        -222.120                   114443502.87008  92994686.24107                        52.750          47.750
C23  23828211.040                                       -2432.027                                   124079791.20008                                        52.100
E01  28326780.819    28326782.731    28326780.997    28326782.206       -2887.609       -2156.292       -2212.519       -2184.401   148858268.53147 111160421.11107 114060252.34707 112610338.90207        45.600          43.800          43.800          47.000
E03  27006338.615    27006341.046    27006341.044    27006340.948        2602.386        1943.430        1994.016        1968.768   141919291.51247 105978706.70607 108743360.27307 107361034.16108        46.900          45.250          46.400          49.000
E05  23595464.904    23595467.087    23595466.318    23595466.371         829.526         619.467         635.626         627.536   123995048.67448  92593734.42208  95009219.96409  93801478.86909        51.550          53.900          55.050          57.700
E09  22522858.398    22522860.537    22522859.674    22522860.124       -1710.172       -1277.077       -1310.376       -1293.717   118358472.17949  88384611.34708  90690288.30308  89537448.99909        54.200          51.850          53.250          55.750
E13  28374651.332    28374654.128    28374652.553    28374653.079         873.504         652.509         669.397         660.872   149109799.90846 111348235.94706 114252968.76406 112800602.03106        41.750          37.700          38.550          41.200
E15  27591050.530    27591054.157    27591052.773    27591053.758       -1375.685       -1027.140       -1053.995       -1040.610   144991961.33347 108273237.92106 111097750.01407 109685495.14707        44.100          41.550          42.500          45.350
E24  22586928.543    22586941.428    22586940.331    22586940.929        1923.767        1436.586        1474.079        1455.345   118695117.97248  88636021.49408  90948258.45308  89792142.14709        53.000          52.550          53.050          55.950
E25  28026788.371    28026790.526    28026789.456    28026790.380        3244.022        2422.539        2485.736        2454.179   147281767.64647 109983150.52407 112852270.32607 111417712.09607        44.950          42.950          43.400          46.450
E31  24446386.229    24446388.781    24446387.781    24446388.290        -964.351        -720.131        -738.963        -729.535   128466653.00248  95932915.79808  98435504.91608  97184210.03309        51.600          52.000          52.400          55.400
G05  20880464.320    20880463.236    20880462.674                       -1078.979        -840.763        -840.763                   109727605.81308  85502037.92208  85502054.91608                        51.050          50.650          51.200
G07  21999791.915    21999790.044    21999789.693                       -2193.675       -1709.358       -1709.358                   115609732.46208  90085522.78307  90085521.77908                        51.900          47.800          51.950
G08  24697351.115    24697353.391    24697352.497    24697351.409        1054.234         821.482         821.482         787.399   129785466.52807 101131540.97707 101131531.97207  96917719.46107        42.050          42.900          42.650          44.100
G09  24506304.546    24506305.909    24506305.638    24506305.683       -3306.527       -2576.516       -2576.514       -2469.459   128781551.06707 100349274.79507 100349272.80007  96168067.89507        44.600          42.100          44.550          45.600
G13  21459103.778                    21459101.913                        2304.374                        1795.616                   112768380.72608                  87871466.60907                        51.800                          45.900
G15  23807348.058    23807346.707    23807346.053                        3403.327        2651.944        2651.942                   125108469.72408  97487113.97806  97487119.96406                        48.400          40.600          38.900
G18  24560366.386    24560365.659    24560365.233    24560368.449         749.015         583.652         583.653         559.367   129065601.81907 100570595.31007 100570598.30906  96380166.24607        45.800          42.650          40.350          46.250
G27  25092976.861    25092978.477    25092977.811    25092976.915        -480.402        -374.340        -374.339        -358.810   131864484.43007 102751550.87406 102751549.88107  98470234.91307        44.150          41.850          44.650          42.750
G28  22113819.048                    22113816.493                        2673.496                        2083.243                   116208908.88208                  90552397.37607                        51.100                          43.750
G30  20435420.508    20435421.362    20435420.721    20435420.081        -577.144        -449.722        -449.722        -430.912   107388892.92808  83679668.06708  83679671.06508  80193021.64109        53.050          52.950          52.950          56.300
I02  37394601.004         294.707   146744501.33707        42.700
I03  41401357.794         -44.110   162467834.85606        38.200
I04  41237590.160        -360.495   161825182.71306        36.550
I06  38257042.692          23.497   150128855.15606        41.150
R01  19162015.352    19162017.572    19162018.340                        -427.530        -332.522        -332.523                   102431997.37908  79669352.73907  79669352.74107                        49.250          45.700          44.850
R02  21812199.663    21812201.542    21812201.539                        3677.939        2860.619        2860.619                   116394089.08908  90528756.15607  90528752.16107                        50.050          46.350          45.950
R08  21215683.352    21215683.018    21215683.048                       -3252.984       -2530.098       -2530.099                   113609058.42708  88362617.02007  88362614.01507                        48.100          47.500          46.900
R09  24036485.765    24036486.723    24036486.692                       -4230.436       -3290.336       -3290.336                   128353542.58107  99830540.70706  99830552.69306                        46.700          41.100          40.050
R10  20795770.489                                                       -3102.180                                                   110853187.62008                                                        51.000
R11  19389776.647    19389777.786    19389777.740                        1316.396        1023.863        1023.863                   103613094.90008  80587970.68008  80587975.68008                        53.200          50.800          50.250
R12  22353776.868    22353778.995    22353779.156                        4076.884        3170.909        3170.909                   119409884.13608  92874349.20407  92874350.20607                        51.800          46.100          45.100
R17  24416113.171    24416113.695    24416113.778                       -3266.473       -2540.588       -2540.588                   130655549.83706 101620980.52706 101620983.51906                        41.500          38.100          36.800
R18  23520258.486    23520261.076    23520261.844                        -909.071        -707.055        -707.056                   125552745.35407  97652148.96107  97652148.95806                        47.400          42.750          41.550
R19  24078049.990    24078051.134    24078050.733                        2084.731        1621.463        1621.461                   128801334.45606 100178817.50106 100178816.49806                        38.850          40.250          39.700
S23  38542266.062           3.367   202541391.57808        49.000
S36  38339122.486           -.839   201474780.29608        48.400
> 2020 06 25 00 15 30.0000000  0 42
C05  39932502.933    39932496.519    39932497.527           0.820           0.666           0.709   207939024.82107 168967475.04606 160791622.54006        42.050          41.050          38.350
C07  39740667.265    39740656.043    39740661.702        -672.852        -547.048        -520.364   206940113.59707 168155758.84006 160019217.08407        43.600          40.100          43.150
C10  38200604.576    38200596.021    38200602.325         -41.183         -33.559         -31.907   198920610.13207 161639265.24607 153818047.46207        45.400          44.150          47.250
C12  26794797.061    26794789.023    26794794.992        -108.552         -87.642         -84.024   139527539.89905 113377522.13804 107891535.96405        31.050          28.100          35.550
C19  23743379.833    23743369.879                        2522.511        2049.722                   123638037.21108 100466009.96207                        49.950          46.200
C20  21979281.285    21979268.407                        -288.287        -234.248                   114451926.17108  93001530.86707                        52.750          47.400
C23  23842244.865                                       -2439.824                                   124152868.68108                                        51.900
E01  28343275.423    28343277.624    28343276.069    28343277.069       -2891.196       -2158.957       -2215.307       -2187.136   148944949.55447 111225150.39807 114126670.21107 112675912.48107        44.000          43.500          44.550          47.500
E03  26991485.702    26991488.365    26991488.166    26991487.865        2601.093        1942.329        1993.061        1967.691   141841239.08548 105920420.83307 108683553.88407 107301988.03308        48.400          45.200          47.100          49.550
E05  23590752.245    23590755.084    23590754.173    23590754.341         821.220         613.239         629.201         621.218   123970286.63348  92575243.27109  94990246.44109  93782746.53109        50.900          54.300          55.300          58.250
E09  22532643.746    22532645.405    22532644.636    22532644.945       -1717.848       -1282.837       -1316.314       -1299.589   118409891.82149  88423009.14408  90729687.78508  89576347.63809        55.250          52.250          53.500          56.250
E13  28369703.016    28369705.296    28369704.287    28369704.785         859.682         642.102         658.979         650.440   149083795.30347 111328816.91106 114233043.12606 112780929.70406        43.750          37.200          38.500          41.300
E15  27598937.879    27598941.353    27598939.976    27598940.992       -1387.641       -1036.341       -1063.303       -1049.763   145033410.22647 108304190.06007 111129509.56706 109716850.98507        44.150          42.850          41.900          45.900
E24  22575978.170    22575991.106    22575989.799    22575990.371        1912.491        1428.170        1465.409        1446.791   118637572.79049  88593049.45208  90904165.39708  89748609.59809        54.050          52.900          53.500          56.600
E25  28008272.053    28008274.073    28008272.749    28008273.897        3243.013        2421.726        2484.768        2453.270   147184463.18747 109910488.12807 112777712.40207 111344101.93907        45.600          43.300          44.000          47.150
E31  24451927.802    24451930.335    24451929.380    24451929.886        -977.134        -729.629        -748.719        -739.184   128495774.16648  95954662.11908  98457818.53708  97206240.00109        51.850          52.450          52.800          56.050
G05  20886678.146    20886677.168    20886676.557                       -1098.060        -855.631        -855.631                   109760260.00408  85527482.73908  85527499.73608                        50.950          50.350          51.100
G07  22012337.269    22012335.493    22012335.050                       -2201.547       -1715.491       -1715.491                   115675659.02008  90136894.12807  90136893.12308                        52.200          47.850          52.150
G08  24691378.740    24691381.428    24691380.537    24691378.843        1037.715         808.610         808.611         774.906   129754082.98307 101107086.30607 101107077.30607  96894283.72607        42.400          42.200          42.900          45.250
G09  24525193.014    24525194.161    24525193.891    24525194.004       -3310.323       -2579.473       -2579.473       -2471.890   128880809.51407 100426619.04307 100426617.04107  96242189.43007        45.650          42.300          45.350          45.900
G13  21445971.885                    21445969.997                        2296.146                        1789.205                   112699371.96208                  87817693.55907                        52.000                          45.650
G15  23787929.170    23787927.506    23787926.877                        3400.016        2649.364        2649.364                   125006423.06007  97407597.11606  97407603.10306                        45.750          39.550          39.300
G18  24556142.444    24556141.755    24556141.416    24556144.709         730.476         569.204         569.203         545.679   129043405.66607 100553299.63207 100553302.62306  96363591.21907        44.050          43.350          39.950          46.350
G27  25095774.867    25095776.199    25095775.541    25095774.582        -499.619        -389.316        -389.317        -373.241   131879187.05007 102763007.47207 102763006.46307  98481214.13507        44.700          42.000          44.750          42.950
G28  22098590.396                    22098587.787                        2661.521                        2073.914                   116128881.18808                  90490038.14707                        50.350                          43.250
G30  20438754.453    20438755.232    20438754.576    20438753.918        -591.040        -460.550        -460.550        -441.362   107406412.50608  83693319.69208  83693322.69108  80206104.46109        52.700          52.850          52.750          56.750
I02  37392353.010         293.465   146735679.72807        43.050
I03  41401693.947         -43.782   162469154.16506        38.950
I04  41240349.652        -361.415   161836012.68406        36.750
I06  38256861.714          23.896   150128145.04806        41.550
R01  19164475.565    19164477.667    19164478.493                        -449.288        -349.446        -349.447                   102445148.68608  79679581.52307  79679581.52407                        49.000          45.350          44.300
R02  21791539.330    21791541.696    21791541.844                        3671.575        2855.669        2855.668                   116283844.34308  90443010.25707  90443006.25207                        50.400          46.200          45.600
R08  21233943.973    21233944.009    21233944.020                       -3266.259       -2540.423       -2540.423                   113706844.46608  88438672.80407  88438669.80407                        48.600          47.250          46.900
R09  24060256.008    24060256.358    24060256.318                       -4231.646       -3291.280       -3291.280                   128480472.62207  99929264.16207  99929276.15106                        45.800          42.200          41.200
R10  20813269.178                                                       -3116.400                                                   110946465.26008                                                        50.300
R11  19382450.799    19382451.880    19382451.856                        1293.355        1005.943        1005.944                   103573947.75808  80557522.91108  80557527.90608                        53.050          50.350          49.850
R12  22330905.378    22330907.727    22330907.818                        4067.914        3163.937        3163.937                   119287709.90508  92779324.85007  92779325.84707                        49.400          45.450          44.800
R17  24434456.642    24434456.707    24434456.793                       -3277.457       -2549.132       -2549.131                   130753708.17807 101697325.93606 101697328.92606                        42.800          37.750          36.750
R18  23525436.248    23525438.749    23525439.175                        -933.665        -726.183        -726.184                   125580384.97907  97673646.44206  97673646.44006                        44.900          40.150          40.400
R19  24066418.150    24066418.966    24066418.528                        2063.802        1605.181        1605.179                   128739110.01406 100130420.71106 100130419.72006                        37.200          38.750          38.700
S23  38542245.423           3.839   202541282.44508        48.950
S36  38339126.085           -.694   201474799.71208        48.350
